city,state,lat,long,population
New York,NY,40.6943,-73.9249,18713220
Los Angeles,CA,34.1139,-118.4068,12750807
Chicago,IL,41.8373,-87.6862,8604203
Miami,FL,25.7839,-80.2102,6445545
Dallas,TX,32.7936,-96.7662,5743938
Philadelphia,PA,40.0077,-75.1339,5649300
Houston,TX,29.7863,-95.3889,5464251
Atlanta,GA,33.7627,-84.4224,5449398
Washington,DC,38.9047,-77.0163,5379184
Boston,MA,42.3188,-71.0846,4688346
Phoenix,AZ,33.5722,-112.0891,4219697
Seattle,WA,47.6211,-122.3244,3789215
San Francisco,CA,37.7562,-122.443,3592294
Detroit,MI,42.3834,-83.1024,3506126
San Diego,CA,32.8312,-117.1225,3220118
Minneapolis,MN,44.9635,-93.2678,2977172
Tampa,FL,27.9942,-82.4451,2908063
Denver,CO,39.7621,-104.8759,2876625
Brooklyn,NY,40.6501,-73.9496,2559903
Queens,NY,40.7498,-73.7976,2230722
Riverside,CA,33.9381,-117.3948,2107852
Baltimore,MD,39.3051,-76.6144,2106068
Las Vegas,NV,36.2333,-115.2654,2104198
Portland,OR,45.5372,-122.65,2074775
San Antonio,TX,29.4658,-98.5253,2049293
St. Louis,MO,38.6358,-90.2451,2024074
Sacramento,CA,38.5667,-121.4683,1898019
Orlando,FL,28.4772,-81.3369,1822394
San Jose,CA,37.3019,-121.8486,1798103
Cleveland,OH,41.4767,-81.6804,1710093
Pittsburgh,PA,40.4396,-79.9762,1703266
Austin,TX,30.3004,-97.7522,1687311
Cincinnati,OH,39.1413,-84.5061,1662691
Kansas City,MO,39.1239,-94.5541,1636715
Manhattan,NY,40.7834,-73.9662,1628706
Indianapolis,IN,39.7771,-86.1458,1588961
Columbus,OH,39.9862,-82.985,1562009
Charlotte,NC,35.208,-80.8304,1512923
Virginia Beach,VA,36.7335,-76.0435,1478868
Bronx,NY,40.8501,-73.8662,1418207
Milwaukee,WI,43.0642,-87.9673,1365787
Providence,RI,41.823,-71.4187,1203230
Jacksonville,FL,30.3322,-81.6749,1181496
Salt Lake City,UT,40.7777,-111.9306,1098526
Nashville,TN,36.1715,-86.7843,1081903
Richmond,VA,37.5295,-77.4756,1075798
Memphis,TN,35.1046,-89.9773,1066967
Raleigh,NC,35.8325,-78.6435,1038738
New Orleans,LA,30.0687,-89.9288,1020886
Louisville,KY,38.1663,-85.6485,1005654
Oklahoma City,OK,35.4676,-97.5136,972943
Bridgeport,CT,41.1918,-73.1953,924449
Buffalo,NY,42.9016,-78.8487,914341
Fort Worth,TX,32.7811,-97.3473,909585
Hartford,CT,41.7661,-72.6834,905152
Tucson,AZ,32.1545,-110.8782,888486
Omaha,NE,41.2627,-96.0522,847819
El Paso,TX,31.8479,-106.4309,843386
Honolulu,HI,21.3294,-157.846,820987
McAllen,TX,26.2273,-98.2471,804114
Albuquerque,NM,35.1053,-106.6464,761195
Birmingham,AL,33.5277,-86.7987,739573
Sarasota,FL,27.3386,-82.5431,722243
Dayton,OH,39.7797,-84.1998,718353
Rochester,NY,43.168,-77.6162,703952
Fresno,CA,36.7831,-119.7941,703498
Allentown,PA,40.5961,-75.4756,683794
Tulsa,OK,36.1284,-95.9042,671033
Cape Coral,FL,26.6446,-81.9956,668382
Concord,CA,37.9722,-122.0016,652308
Colorado Springs,CO,38.8674,-104.7606,642413
Charleston,SC,32.8153,-79.9628,628377
Springfield,MA,42.1155,-72.5395,623401
Grand Rapids,MI,42.962,-85.6562,609314
Mission Viejo,CA,33.6095,-117.655,590249
Albany,NY,42.6664,-73.7987,586383
Knoxville,TN,35.9692,-83.9496,586048
Bakersfield,CA,35.3529,-119.0359,579295
Ogden,UT,41.2278,-111.9682,578523
Baton Rouge,LA,30.4418,-91.131,570308
Akron,OH,41.0798,-81.5219,565208
New Haven,CT,41.3112,-72.9246,564830
Columbia,SC,34.0376,-80.9037,560041
Mesa,AZ,33.4017,-111.718,518012
Palm Bay,FL,27.955,-80.6627,507002
Provo,UT,40.2457,-111.6457,500617
Worcester,MA,42.2705,-71.8079,498328
Murrieta,CA,33.572,-117.1909,496046
Greenville,SC,34.8353,-82.3647,484465
Wichita,KS,37.6896,-97.3442,482249
Toledo,OH,41.6639,-83.5822,482111
Staten Island,NY,40.5834,-74.1496,476143
Des Moines,IA,41.5725,-93.6105,473957
Long Beach,CA,33.7981,-118.1675,462628
Port St. Lucie,FL,27.2796,-80.3883,461152
Denton,TX,33.2176,-97.1419,457177
Madison,WI,43.0826,-89.3931,447245
Reno,NV,39.5497,-119.8483,445020
Harrisburg,PA,40.2752,-76.8843,442289
Little Rock,AR,34.7256,-92.3576,439815
Oakland,CA,37.7903,-122.2165,433031
Durham,NC,35.9794,-78.9031,424700
Winston-Salem,NC,36.1029,-80.2611,422269
Bonita Springs,FL,26.3559,-81.7861,421291
Indio,CA,33.7346,-116.2346,417059
Palm Coast,FL,29.5392,-81.246,417007
Chattanooga,TN,35.0657,-85.2488,415501
Spokane,WA,47.6671,-117.433,412275
Syracuse,NY,43.0409,-76.1438,404223
Lancaster,PA,40.0421,-76.3012,401524
Arlington,TX,32.6998,-97.125,398854
Stockton,CA,37.9765,-121.3109,397264
Poughkeepsie,NY,41.6949,-73.921,394760
Augusta,GA,33.3645,-82.0708,390809
Boise,ID,43.6007,-116.2312,389280
Oxnard,CA,34.1963,-119.1815,387647
Scranton,PA,41.4044,-75.6649,384250
Modesto,CA,37.6374,-121.0028,383134
Kissimmee,FL,28.3042,-81.4164,382720
Aurora,CO,39.7087,-104.7273,379289
Youngstown,OH,41.0993,-80.6463,378732
Fayetteville,AR,36.0713,-94.166,351246
Anaheim,CA,33.839,-117.8572,350365
Pensacola,FL,30.4427,-87.1886,346921
Victorville,CA,34.5277,-117.3536,346789
Lancaster,CA,34.6935,-118.1753,343304
Greensboro,NC,36.0956,-79.8269,343090
Corpus Christi,TX,27.726,-97.3755,342464
Fort Wayne,IN,41.0886,-85.1437,334122
Santa Ana,CA,33.7366,-117.8819,332318
Flint,MI,43.0235,-83.6922,332190
Fayetteville,NC,35.0846,-78.9776,327435
Jackson,MS,32.3163,-90.2124,325350
Santa Rosa,CA,38.4458,-122.7067,324634
Lansing,MI,42.7142,-84.5601,324286
San Juan,PR,18.4037,-66.0636,323279
Lexington,KY,38.0423,-84.4587,323152
Ann Arbor,MI,42.2755,-83.7312,322267
Henderson,NV,36.0133,-115.038,320189
Huntsville,AL,34.6988,-86.6412,319249
Mobile,AL,30.6783,-88.1162,315502
Fort Collins,CO,40.5478,-105.0656,312666
Asheville,NC,35.5704,-82.5536,312507
Santa Clarita,CA,34.4175,-118.4964,312446
St. Paul,MN,44.9477,-93.104,308096
Antioch,CA,37.9789,-121.7958,302419
Lakeland,FL,28.0556,-81.9545,302284
Trenton,NJ,40.2236,-74.7641,290716
Lincoln,NE,40.809,-96.6788,289490
Springfield,MO,37.1943,-93.2916,288090
Anchorage,AK,61.1508,-149.1091,288000
Plano,TX,33.0502,-96.7487,287677
Irvine,CA,33.6772,-117.7738,287401
Davenport,IA,41.5563,-90.6052,285362
Rockford,IL,42.2597,-89.0641,282762
Newark,NJ,40.7245,-74.1725,282011
South Bend,IN,41.6767,-86.2696,280498
Shreveport,LA,32.4656,-93.7956,280062
Round Lake Beach,IL,42.379,-88.0811,279381
Savannah,GA,32.0281,-81.1784,276295
Myrtle Beach,SC,33.7096,-78.8843,275579
Chula Vista,CA,32.6281,-117.0145,274492
Eugene,OR,44.0563,-123.1173,273439
Canton,OH,40.8075,-81.3677,269418
Lubbock,TX,33.5659,-101.8878,267648
Reading,PA,40.34,-75.9267,267155
Winter Haven,FL,28.0118,-81.7017,267069
Salem,OR,44.9231,-123.0246,266804
St. Petersburg,FL,27.7931,-82.6652,265351
Lafayette,LA,30.2084,-92.0323,264357
Laredo,TX,27.5629,-99.4875,262491
Jersey City,NJ,40.7161,-74.0682,262075
Concord,NC,35.3933,-80.6366,261801
Columbus,GA,32.51,-84.8771,261445
Chandler,AZ,33.2826,-111.8516,261165
McKinney,TX,33.2015,-96.6669,258277
Scottsdale,AZ,33.6872,-111.8651,258069
Killeen,TX,31.0754,-97.7296,258009
Tallahassee,FL,30.4551,-84.2526,257601
Peoria,IL,40.752,-89.6153,256286
Wilmington,NC,34.21,-77.8866,255616
Montgomery,AL,32.3473,-86.2666,254634
Gilbert,AZ,33.3101,-111.7463,254114
Glendale,AZ,33.5791,-112.2311,252381
North Las Vegas,NV,36.288,-115.0901,251974
Chesapeake,VA,36.6778,-76.3024,244835
Barnstable,MA,41.6722,-70.3599,242847
Norfolk,VA,36.8945,-76.259,242742
Fremont,CA,37.5265,-121.9852,241110
Kennewick,WA,46.1978,-119.1732,240735
Garland,TX,32.91,-96.6305,239928
Irving,TX,32.8584,-96.9702,239798
Visalia,CA,36.3276,-119.3269,237386
Atlantic City,NJ,39.3797,-74.4527,237054
Paradise,NV,36.0807,-115.1369,235087
Nashua,NH,42.7491,-71.491,233917
Arlington,VA,38.8786,-77.1011,233464
Hialeah,FL,25.8696,-80.3046,233339
York,PA,39.9651,-76.7315,233184
Evansville,IN,37.9881,-87.5341,230427
Avondale,AZ,33.3858,-112.3236,227289
Brownsville,TX,25.998,-97.4565,227239
Gulfport,MS,30.4271,-89.0703,220987
Appleton,WI,44.2779,-88.3891,220570
Bremerton,WA,47.5436,-122.7122,218400
Hickory,NC,35.7425,-81.323,218323
Tacoma,WA,47.2431,-122.4531,217827
San Bernardino,CA,34.1417,-117.2946,215784
College Station,TX,30.5852,-96.296,215243
Kalamazoo,MI,42.2749,-85.5882,215193
Thousand Oaks,CA,34.1914,-118.8755,215029
Roanoke,VA,37.2785,-79.958,214674
Fontana,CA,34.0968,-117.4599,214547
Moreno Valley,CA,33.9244,-117.2045,213055
North Port,FL,27.0577,-82.1975,209070
Fargo,ND,46.8652,-96.8292,208675
Green Bay,WI,44.515,-87.9896,207557
Spring Valley,NV,36.0987,-115.2619,207127
Amarillo,TX,35.1988,-101.8311,205603
Portland,ME,43.6773,-70.2715,203969
Santa Barbara,CA,34.4285,-119.7202,202401
Gainesville,FL,29.6804,-82.3458,202335
Olympia,WA,47.0417,-122.8959,200915
Frisco,TX,33.1555,-96.8215,200490
Yonkers,NY,40.9466,-73.8674,200370
Norwich,CT,41.5495,-72.0882,200289
Glendale,CA,34.1818,-118.2468,199303
Huntington Beach,CA,33.696,-118.0025,199223
Deltona,FL,28.905,-81.2137,198361
Aurora,IL,41.7637,-88.2901,197757
Tempe,AZ,33.3881,-111.9318,195805
Overland Park,KS,38.887,-94.687,195494
Grand Prairie,TX,32.6872,-97.0209,194543
Sunrise Manor,NV,36.1785,-115.049,193781
Waco,TX,31.5598,-97.1881,192315
Salinas,CA,36.6884,-121.6317,190972
Waterbury,CT,41.5583,-73.0361,189614
Clarksville,TN,36.5695,-87.342,188746
Cedar Rapids,IA,41.9665,-91.6782,188038
Sioux Falls,SD,43.5397,-96.732,187239
Huntington,WV,38.4109,-82.4344,186034
Ontario,CA,34.0393,-117.6064,185010
Hagerstown,MD,39.6401,-77.7217,184755
Erie,PA,42.1168,-80.0733,184484
Vancouver,WA,45.6366,-122.5967,184463
Nampa,ID,43.5845,-116.5631,184428
Spartanburg,SC,34.9437,-81.9257,182701
Gastonia,NC,35.2494,-81.1853,182581
Fort Lauderdale,FL,26.1412,-80.1464,182437
Lorain,OH,41.4409,-82.184,180279
Murfreesboro,TN,35.8492,-86.4119,179951
High Point,NC,35.9907,-79.9938,179913
Newport News,VA,37.1051,-76.5185,179225
Rancho Cucamonga,CA,34.1248,-117.5666,177603
Hemet,CA,33.7341,-116.9969,177253
Santa Cruz,CA,36.9789,-122.0346,176428
Danbury,CT,41.4016,-73.471,176030
Peoria,AZ,33.7844,-112.2989,175961
Oceanside,CA,33.2247,-117.3083,175742
Elk Grove,CA,38.416,-121.3842,174775
Pembroke Pines,FL,26.0128,-80.3382,173591
Vallejo,CA,38.1133,-122.2358,173256
Garden Grove,CA,33.7787,-117.9601,171644
Enterprise,NV,36.0164,-115.2208,171108
Medford,OR,42.3372,-122.8537,170876
Cary,NC,35.782,-78.8191,170282
Marysville,WA,48.0809,-122.1561,170009
Corona,CA,33.8616,-117.5649,169868
Ocala,FL,29.178,-82.1511,169383
Fredericksburg,VA,38.2992,-77.4872,168909
Gainesville,GA,34.2903,-83.8301,167371
Manchester,NH,42.9848,-71.4447,162877
Bayamon,PR,18.3793,-66.1635,161034
Champaign,IL,40.1144,-88.2735,159443
Alexandria,VA,38.8185,-77.0861,159428
Hayward,CA,37.6328,-122.0772,159203
Springfield,IL,39.771,-89.6538,158509
Lakewood,CO,39.6977,-105.1168,157935
Lafayette,IN,40.399,-86.8594,157820
Frederick,MD,39.4336,-77.4141,156787
Lake Charles,LA,30.2012,-93.2122,156181
Odessa,TX,31.8831,-102.3406,155998
Tuscaloosa,AL,33.2348,-87.5267,155499
Warner Robins,GA,32.597,-83.6529,155140
Palmdale,CA,34.5944,-118.1057,155079
Hollywood,FL,26.0294,-80.1679,154817
Midland,TX,32.0249,-102.1137,154793
Leesburg,FL,28.7657,-81.8996,154574
Port Arthur,TX,29.8554,-93.9264,154468
Muskegon,MI,43.2281,-86.2563,153565
Macon,GA,32.8065,-83.6974,153159
Kansas City,KS,39.1234,-94.7443,152960
Sunnyvale,CA,37.3836,-122.0256,152703
Pomona,CA,34.0585,-117.7626,151691
Escondido,CA,33.1347,-117.0722,151625
Pasadena,TX,29.6583,-95.1499,151227
New Bedford,MA,41.6697,-70.9428,149910
Fairfield,CA,38.2592,-122.0324,148683
Naperville,IL,41.7483,-88.1657,148449
Bellevue,WA,47.5951,-122.1535,148164
Binghamton,NY,42.1014,-75.9093,148145
Elkhart,IN,41.6916,-85.9628,147567
Topeka,KS,39.0346,-95.6955,147458
Joliet,IL,41.5189,-88.1499,147344
Beaumont,TX,30.0849,-94.1451,146091
Paterson,NJ,40.9147,-74.1624,145233
Merced,CA,37.3057,-120.4778,145149
Pueblo,CO,38.2705,-104.6112,143932
Tyler,TX,32.3184,-95.3062,143796
Torrance,CA,33.8346,-118.3417,143592
Yuma,AZ,32.5992,-114.5488,142847
Metairie,LA,29.9977,-90.178,142135
Surprise,AZ,33.68,-112.4524,141664
Columbia,MO,38.9478,-92.3256,141645
Athens,GA,33.9508,-83.3689,141532
Roseville,CA,38.7703,-121.3196,141500
Thornton,CO,39.9197,-104.9438,141464
Miramar,FL,25.9773,-80.3351,141191
Pasadena,CA,34.1597,-118.139,141029
Mesquite,TX,32.7623,-96.5889,140937
Olathe,KS,38.8832,-94.8198,140545
Santa Maria,CA,34.9334,-120.4432,140545
Houma,LA,29.5799,-90.7058,140469
Carrollton,TX,32.989,-96.8999,139248
Grand Junction,CO,39.0876,-108.5673,139143
Charleston,WV,38.3484,-81.6323,138706
Orange,CA,33.8038,-117.8218,138669
Fullerton,CA,33.8841,-117.9279,138632
Greeley,CO,40.4151,-104.7706,137810
Carolina,PR,18.4054,-65.9792,136771
Las Cruces,NM,32.3265,-106.7892,136254
Panama City,FL,30.1995,-85.6004,136133
Harlingen,TX,26.1917,-97.6976,136037
West Valley City,UT,40.6889,-112.0115,135248
Hampton,VA,37.0551,-76.363,134510
Warren,MI,42.4934,-83.027,133943
Mauldin,SC,34.7849,-82.3005,133872
Bloomington,IL,40.4757,-88.9703,133846
Coral Springs,FL,26.2702,-80.2591,133759
Round Rock,TX,30.5254,-97.666,133372
Yakima,WA,46.5923,-120.5496,133191
Sterling Heights,MI,42.5809,-83.0305,132438
Kent,WA,47.3887,-122.2129,132319
Burlington,NC,36.0758,-79.4686,131043
Bellingham,WA,48.7543,-122.4687,130641
Santa Clara,CA,37.3645,-121.968,130365
Racine,WI,42.7274,-87.8135,130142
Greenville,NC,35.5956,-77.3768,130118
Stamford,CT,41.1035,-73.5583,129638
Elizabeth,NJ,40.6657,-74.1912,129216
Johnson City,TN,36.3406,-82.3803,127571
Lynchburg,VA,37.4003,-79.1909,126814
Simi Valley,CA,34.2663,-118.749,126589
Fort Smith,AR,35.3493,-94.3695,125354
Kenosha,WI,42.5864,-87.8765,124972
Norman,OK,35.2335,-97.3471,124880
South Lyon,MI,42.4614,-83.6526,124694
Boulder,CO,40.0249,-105.2523,124345
Abilene,TX,32.4543,-99.7384,123420
Lehigh Acres,FL,26.612,-81.6388,123378
Pearland,TX,29.5585,-95.3215,122460
Berkeley,CA,37.8723,-122.276,121363
Richardson,TX,32.9717,-96.7093,121323
Redding,CA,40.5698,-122.365,121313
Arvada,CO,39.8321,-105.1511,121272
East Los Angeles,CA,34.0326,-118.1691,121187
St. George,UT,37.077,-113.577,120899
Billings,MT,45.7891,-108.5524,120728
Yuba City,CA,39.1357,-121.6381,120456
Rochester,MN,44.0151,-92.4778,119942
Leominster,MA,42.5209,-71.7717,119690
Kingsport,TN,36.5224,-82.5453,119666
Duluth,MN,46.7756,-92.1392,119476
Rock Hill,SC,34.9416,-81.0244,119105
Gilroy,CA,37.0047,-121.5855,118993
Cambridge,MA,42.3759,-71.1185,118927
Sugar Land,TX,29.5935,-95.6357,118488
Texas City,TX,29.4128,-94.9658,118169
Iowa City,IA,41.6559,-91.5303,118041
Saginaw,MI,43.4199,-83.9501,117958
Chico,CA,39.7575,-121.8152,117668
Dover,DE,39.161,-75.5203,117282
Clearwater,FL,27.9789,-82.7622,116946
Coeur d'Alene,ID,47.7041,-116.7935,116834
Seaside,CA,36.6224,-121.8191,116720
Independence,MO,39.0871,-94.3501,116672
West Jordan,UT,40.6024,-112.0008,116480
Brandon,FL,27.9367,-82.3,115911
Bloomington,IN,39.1637,-86.5257,115884
El Monte,CA,34.0739,-118.0291,115487
North Charleston,SC,32.9066,-80.0722,115382
Carlsbad,CA,33.1247,-117.2837,115382
St. Cloud,MN,45.5339,-94.1718,115028
Temecula,CA,33.4928,-117.1315,114761
Clovis,CA,36.8278,-119.6831,114584
Meridian,ID,43.6112,-116.3968,114161
The Woodlands,TX,30.1738,-95.5134,113819
Ponce,PR,18.012,-66.6198,113401
Westminster,CO,39.8837,-105.0624,113166
Costa Mesa,CA,33.6667,-117.9135,113003
Monroe,LA,32.5183,-92.0774,112891
Utica,NY,43.0961,-75.226,112650
Pompano Beach,FL,26.2428,-80.1312,112118
West Palm Beach,FL,26.7468,-80.1316,111955
Waterloo,IA,42.492,-92.3522,111631
Everett,WA,47.9525,-122.1669,111475
El Centro,CA,32.7867,-115.5586,111425
Santa Fe,NM,35.6619,-105.9819,111269
Downey,CA,33.9379,-118.1312,111126
Spring Hill,FL,28.4797,-82.53,111076
Lowell,MA,42.6389,-71.3217,110997
Centennial,CO,39.5926,-104.8674,110937
Elgin,IL,42.0385,-88.3229,110849
Richmond,CA,37.9477,-122.339,110567
Broken Arrow,OK,36.0365,-95.7809,110198
Miami Gardens,FL,25.9433,-80.2426,110001
Bend,OR,44.0562,-121.3087,109802
Burlington,VT,44.4877,-73.2314,109763
Jurupa Valley,CA,34.001,-117.4705,109527
Sandy Springs,GA,33.9366,-84.3703,109452
Gresham,OR,45.5023,-122.4413,109381
Lewisville,TX,33.0452,-96.9823,109212
Hillsboro,OR,45.5272,-122.9361,109128
San Buenaventura,CA,34.2741,-119.2314,109106
Jacksonville,NC,34.7288,-77.3941,108856
Pottstown,PA,40.2507,-75.6444,108758
Inglewood,CA,33.9566,-118.3444,108151
League City,TX,29.4873,-95.1087,107536
Eau Claire,WI,44.8199,-91.4949,107404
Turlock,CA,37.5053,-120.8588,107317
Temple,TX,31.1076,-97.3894,107258
Sioux City,IA,42.4959,-96.3901,106455
Salisbury,MD,38.3756,-75.5867,106447
Davie,FL,26.0789,-80.287,106306
Daly City,CA,37.6862,-122.4685,106280
Highlands Ranch,CO,39.5419,-104.9708,105631
Allen,TX,33.1088,-96.6735,105623
West Covina,CA,34.0555,-117.9112,105101
Sparks,NV,39.5729,-119.7157,105006
Wichita Falls,TX,33.9072,-98.5291,104683
San Mateo,CA,37.5521,-122.3122,104430
Columbia,MD,39.2004,-76.859,103991
Norwalk,CA,33.9069,-118.0829,103949
Rialto,CA,34.1174,-117.3894,103526
Manteca,CA,37.7927,-121.2264,103420
Arden-Arcade,CA,38.6034,-121.381,102864
El Cajon,CA,32.8017,-116.9605,102708
Burbank,CA,34.1879,-118.3235,102511
Longmont,CO,40.1686,-105.1005,102474
Renton,WA,47.4784,-122.1919,101751
Vista,CA,33.1896,-117.2386,101638
Logan,UT,41.74,-111.8419,101616
Prescott Valley,AZ,34.5983,-112.3176,101539
Vacaville,CA,38.359,-121.968,101444
Edinburg,TX,26.3197,-98.1596,101170
Carmel,IN,39.965,-86.146,101068
Spokane Valley,WA,47.6626,-117.2346,101060
San Angelo,TX,31.4424,-100.4506,101004
La Crosse,WI,43.824,-91.2268,100693
Idaho Falls,ID,43.4872,-112.0362,100442
Holland,MI,42.7677,-86.0985,100432
Charlottesville,VA,38.0375,-78.4855,100416
Longview,TX,32.5193,-94.7621,100330
Tracy,CA,37.7269,-121.4522,100049
Boca Raton,FL,26.3752,-80.108,99805
Lafayette,CO,39.9949,-105.0997,99645
Lee's Summit,MO,38.9172,-94.3816,99357
Rio Rancho,NM,35.2872,-106.6981,99178
South Fulton,GA,33.6269,-84.5802,99155
Beaverton,OR,45.4779,-122.8168,99037
Lawrence,KS,38.9597,-95.2641,98648
Bismarck,ND,46.8144,-100.7694,98345
Orem,UT,40.2983,-111.6992,97828
Middletown,OH,39.5032,-84.366,97730
San Tan Valley,AZ,33.1879,-111.5472,96692
San Marcos,CA,33.135,-117.1744,96664
Sandy,UT,40.571,-111.8505,96380
Federal Way,WA,47.3091,-122.3358,96289
Mandeville,LA,30.3751,-90.0904,95968
Hesperia,CA,34.3975,-117.3147,95750
Brockton,MA,42.0821,-71.0242,95708
Compton,CA,33.893,-118.2275,95605
Riverview,FL,27.8227,-82.3023,95338
Fishers,IN,39.9589,-85.9661,95310
Sunrise,FL,26.1547,-80.2997,95166
Bowling Green,KY,36.9719,-86.4373,95135
Roswell,GA,34.0391,-84.3513,94763
Menifee,CA,33.6909,-117.1849,94756
Plantation,FL,26.126,-80.2617,94580
Dover,NH,43.1887,-70.8845,94563
Quincy,MA,42.2516,-71.0183,94470
Portsmouth,VA,36.8468,-76.354,94398
Chino,CA,33.9836,-117.6654,94371
Lynn,MA,42.4779,-70.9663,94299
Edmond,OK,35.6689,-97.4159,94054
Hanford,CA,36.3274,-119.6549,94028
Dearborn,MI,42.3127,-83.2129,93932
Livonia,MI,42.3972,-83.3733,93665
South Gate,CA,33.9448,-118.1926,93444
Vineland,NJ,39.4653,-74.9981,93239
Florence,SC,34.1781,-79.7877,93131
Portsmouth,NH,43.058,-70.7826,93069
Slidell,LA,30.2881,-89.7826,93040
Lawton,OK,34.6176,-98.4203,93025
Kirkland,WA,47.6974,-122.2054,93010
Missoula,MT,46.875,-114.0214,92895
Auburn,AL,32.6087,-85.4899,92777
Rapid City,SD,44.0716,-103.2204,92664
Terre Haute,IN,39.4654,-87.3763,92490
Suffolk,VA,36.6953,-76.6398,92108
Blacksburg,VA,37.23,-80.4279,91888
Mount Pleasant,SC,32.8538,-79.8204,91684
Carson,CA,33.8374,-118.2559,91394
Conroe,TX,30.3239,-95.4825,91079
Alafaya,FL,28.5278,-81.1865,91068
Livermore,CA,37.6862,-121.7608,90923
Westminster,CA,33.7523,-117.9938,90643
Germantown,MD,39.1755,-77.2643,90582
Santa Monica,CA,34.0232,-118.4813,90401
New Braunfels,TX,29.6994,-98.1148,90209
Fall River,MA,41.7137,-71.1014,89541
Albany,GA,31.5776,-84.1762,89217
Miami Beach,FL,25.8171,-80.1396,88885
Norwalk,CT,41.1144,-73.4215,88816
San Leandro,CA,37.7071,-122.1601,88815
O'Fallon,MO,38.785,-90.7175,88673
Newton,MA,42.3316,-71.2085,88414
Muncie,IN,40.1989,-85.395,87879
Citrus Heights,CA,38.6948,-121.288,87796
State College,PA,40.7909,-77.8568,87723
Town 'n' Country,FL,28.0108,-82.576,87338
Decatur,IL,39.8556,-88.9337,87236
Jackson,MI,42.2431,-84.4037,87110
Fort Myers,FL,26.6195,-81.8303,87103
Goodyear,AZ,33.2613,-112.3622,86840
Dalton,GA,34.769,-84.9712,86628
Bryan,TX,30.6657,-96.3668,86276
Waukegan,IL,42.3697,-87.8716,86075
Hawthorne,CA,33.9146,-118.3476,86068
Anderson,IN,40.0891,-85.6893,85992
Redwood City,CA,37.5026,-122.2252,85925
Hoover,AL,33.3754,-86.8064,85768
Lake Forest,CA,33.6606,-117.6712,85531
Napa,CA,38.2976,-122.3011,85239
Whittier,CA,33.9678,-118.0188,85098
Clifton,NJ,40.8631,-74.1575,85052
Largo,FL,27.9088,-82.7711,84948
Bloomington,MN,44.8306,-93.3151,84943
Johns Creek,GA,34.0333,-84.2027,84579
Newport Beach,CA,33.6151,-117.8669,84534
Mission,TX,26.2041,-98.3251,84331
Milpitas,CA,37.4339,-121.8921,84196
Troy,MI,42.5818,-83.1457,84092
Madera,CA,36.9631,-120.0782,84086
Joplin,MO,37.0758,-94.5018,84048
Chino Hills,CA,33.9508,-117.7253,83853
Alhambra,CA,34.084,-118.1355,83750
Franklin,TN,35.9216,-86.8525,83097
Melbourne,FL,28.1085,-80.6627,83029
Port Huron,MI,42.9822,-82.4387,82970
Springfield,OH,39.9297,-83.7957,82820
Mountain View,CA,37.4,-122.0796,82739
Zephyrhills,FL,28.2408,-82.1796,82476
St. Augustine,FL,29.8977,-81.31,82180
Flagstaff,AZ,35.1872,-111.6195,81974
Buena Park,CA,33.8572,-118.0046,81788
Pleasanton,CA,37.6663,-121.8805,81777
Silver Spring,MD,39.0028,-77.0207,81773
Atascocita,TX,29.9777,-95.1953,81557
Westland,MI,42.3192,-83.3805,81511
Auburn,WA,47.3039,-122.2108,81464
Cranston,RI,41.7658,-71.4857,81456
Somerville,MA,42.3908,-71.1013,81360
Folsom,CA,38.6668,-121.1422,81328
Springdale,AR,36.1899,-94.1574,81125
Deerfield Beach,FL,26.305,-80.1277,81066
Warwick,RI,41.7062,-71.4334,81004
Cicero,IL,41.8445,-87.7593,80796
Farmington Hills,MI,42.486,-83.3771,80612
Newark,OH,40.0705,-82.4251,80451
Williamsburg,VA,37.2692,-76.7076,80441
Brooklyn Park,MN,45.1112,-93.3505,80389
Hattiesburg,MS,31.3074,-89.317,80138
Alexandria,LA,31.2923,-92.4702,80129
Lawrence,MA,42.7003,-71.1626,80028
Florence,AL,34.8303,-87.6654,79964
Valdosta,GA,30.8502,-83.2788,79820
Plymouth,MN,45.0225,-93.4618,79768
Buckeye,AZ,33.4314,-112.6429,79620
Georgetown,TX,30.6668,-97.6953,79604
Cheyenne,WY,41.1351,-104.79,79484
Cedar Park,TX,30.5106,-97.8196,79462
The Villages,FL,28.9021,-81.9888,79372
Kokomo,IN,40.464,-86.1277,79351
Tustin,CA,33.7309,-117.8106,79348
Lakewood,CA,33.8471,-118.1221,79307
Perris,CA,33.7899,-117.2233,79291
St. Joseph,MO,39.7599,-94.821,79161
Flower Mound,TX,33.0344,-97.1146,79135
Pharr,TX,26.1685,-98.1904,79112
Pine Hills,FL,28.5818,-81.4693,78995
Alton,IL,38.9034,-90.1523,78905
Loveland,CO,40.4166,-105.0623,78877
Boynton Beach,FL,26.5281,-80.0811,78679
New Rochelle,NY,40.9305,-73.7836,78557
Anderson,SC,34.5211,-82.6479,78512
Jonesboro,AR,35.8212,-90.6791,78394
Lebanon,PA,40.3412,-76.4227,78302
Parma,OH,41.3843,-81.7286,78103
Layton,UT,41.0769,-111.9621,78014
Elizabethtown,KY,37.703,-85.877,78002
Texarkana,TX,33.4487,-94.0815,77964
Alameda,CA,37.767,-122.2672,77624
Kankakee,IL,41.1019,-87.8643,77429
Watsonville,CA,36.9206,-121.7706,77352
Porterville,CA,36.0644,-119.0338,77318
Baytown,TX,29.7586,-94.9669,77192
Upland,CA,34.1178,-117.6603,77140
Davis,CA,38.5552,-121.7365,76997
Camarillo,CA,34.223,-119.0322,76931
South Jordan,UT,40.557,-111.9782,76598
Battle Creek,MI,42.2986,-85.2296,76514
Bellflower,CA,33.888,-118.1271,76435
San Marcos,TX,29.8736,-97.9381,76218
San Ramon,CA,37.7625,-121.9365,75995
Lake Jackson,TX,29.0516,-95.4522,75860
Bethlehem,PA,40.6266,-75.3679,75815
Wyoming,MI,42.8909,-85.7066,75667
Oshkosh,WI,44.0228,-88.5619,75536
Hammond,IN,41.6169,-87.491,75522
Waldorf,MD,38.6085,-76.9195,75489
Missouri City,TX,29.563,-95.5365,75457
Pasco,WA,46.2506,-119.1304,75432
Wheeling,WV,40.0752,-80.6951,75392
Kendall,FL,25.6697,-80.3556,75312
Baldwin Park,CA,34.0829,-117.9721,75251
Rancho Cordova,CA,38.574,-121.2523,75087
Conway,AR,35.0754,-92.4694,74951
Gary,IN,41.5906,-87.3472,74879
Altoona,PA,40.5082,-78.4007,74829
Lodi,CA,38.1218,-121.2932,74773
Arlington Heights,IL,42.0955,-87.9825,74760
Bolingbrook,IL,41.6903,-88.1019,74545
Rochester Hills,MI,42.6645,-83.1563,74516
Winchester,VA,39.1735,-78.1746,74417
Framingham,MA,42.3085,-71.4368,74416
Hilton Head Island,SC,32.1896,-80.7499,74139
Centreville,VA,38.8391,-77.4388,74125
Union City,CA,37.603,-122.0187,74107
Owensboro,KY,37.7574,-87.1173,74068
Jackson,TN,35.6535,-88.8353,74065
Cleveland,TN,35.1817,-84.8707,73596
Wausau,WI,44.962,-89.6459,73593
Camden,NJ,39.9362,-75.1073,73562
Anniston,AL,33.6712,-85.8136,73501
Evanston,IL,42.0463,-87.6942,73473
Apple Valley,CA,34.5328,-117.2104,73453
Mansfield,OH,40.7656,-82.5275,73326
Caguas,PR,18.2319,-66.0388,73322
Schaumburg,IL,42.0307,-88.0838,72887
Pocatello,ID,42.8724,-112.4646,72878
Woodbury,MN,44.9056,-92.923,72828
Southfield,MI,42.4765,-83.2605,72689
Ellicott City,MD,39.2773,-76.8344,72665
Dale City,VA,38.6473,-77.3459,72627
Maple Grove,MN,45.1089,-93.4626,72622
Pittsburg,CA,38.0182,-121.8964,72588
New Britain,CT,41.6758,-72.7862,72495
Morgantown,WV,39.638,-79.9468,72458
Mansfield,TX,32.569,-97.1211,72419
Hammond,LA,30.5061,-90.4563,72413
Dothan,AL,31.2335,-85.4069,72396
Harrisonburg,VA,38.4361,-78.8735,72386
Wenatchee,WA,47.4356,-120.3283,72350
Waukesha,WI,43.0087,-88.2464,72299
Pawtucket,RI,41.8744,-71.3743,72117
Redmond,WA,47.6762,-122.1169,71929
Lauderhill,FL,26.1605,-80.2242,71868
Sumter,SC,33.9392,-80.393,71518
Redlands,CA,34.0511,-117.1712,71513
Daphne,AL,30.6286,-87.8866,71484
Mount Vernon,WA,48.4202,-122.3115,71422
Weston,FL,26.1006,-80.4054,71166
St. Charles,MO,38.7954,-90.5157,71028
Janesville,WI,42.6855,-89.0136,70755
Sherman,TX,33.6274,-96.6218,70704
North Richland Hills,TX,32.8605,-97.218,70670
Broomfield,CO,39.9541,-105.0527,70465
El Paso de Robles,CA,35.6394,-120.656,70248
Bristol,TN,36.5572,-82.2154,70243
Wilmington,DE,39.7415,-75.5413,70166
Casas Adobes,AZ,32.3423,-111.0114,70166
Walnut Creek,CA,37.9024,-122.0398,70166
Poinciana,FL,28.1217,-81.482,69955
Lynwood,CA,33.924,-118.2017,69887
Glen Burnie,MD,39.1559,-76.6072,69872
Lehi,UT,40.4136,-111.8726,69724
Passaic,NJ,40.8574,-74.1282,69703
Homestead,FL,25.4665,-80.4472,69523
West Bend,WI,43.4184,-88.1824,69504
Delray Beach,FL,26.455,-80.0905,69451
Sheboygan,WI,43.7403,-87.7316,69393
Lake Elsinore,CA,33.6847,-117.3344,69283
Daytona Beach,FL,29.1994,-81.0982,69186
Los Lunas,NM,34.8115,-106.7803,69020
Lima,OH,40.741,-84.1121,68878
Decatur,AL,34.573,-86.9906,68867
Rocklin,CA,38.8075,-121.2488,68823
Rogers,AR,36.3172,-94.1526,68669
Castle Rock,CO,39.3763,-104.8535,68484
Hanover,PA,39.8117,-76.9835,68165
Bossier City,LA,32.5227,-93.6666,68159
Dubuque,IA,42.5008,-90.7067,68109
Rockville,MD,39.0834,-77.1552,68079
Victoria,TX,28.8285,-96.985,68078
Saratoga Springs,NY,43.0674,-73.7775,68028
Guaynabo,PR,18.3839,-66.1134,68024
Gaithersburg,MD,39.1346,-77.2132,67985
Union City,NJ,40.7674,-74.0323,67982
Ames,IA,42.0259,-93.6215,67910
West Des Moines,IA,41.5522,-93.7805,67899
South San Francisco,CA,37.6536,-122.4197,67789
Yorba Linda,CA,33.889,-117.7714,67644
Casper,WY,42.842,-106.3207,67598
Palatine,IL,42.1181,-88.043,67482
Corvallis,OR,44.5697,-123.278,67467
Ankeny,IA,41.7285,-93.6033,67355
Mount Vernon,NY,40.9136,-73.8291,67345
Rowlett,TX,32.9157,-96.5488,67339
Lakeville,MN,44.6774,-93.252,67317
Alpharetta,GA,34.0704,-84.2739,67213
Longview,WA,46.1461,-122.9629,67081
DeKalb,IL,41.9313,-88.7482,66959
Petaluma,CA,38.2423,-122.6267,66929
Redondo Beach,CA,33.8574,-118.3766,66749
Tamarac,FL,26.2056,-80.2542,66721
Laguna Niguel,CA,33.5275,-117.705,66385
Eagan,MN,44.8169,-93.1638,66372
Kenner,LA,30.0109,-90.2549,66340
Bay City,MI,43.5903,-83.8886,66107
North Little Rock,AR,34.7808,-92.2371,65903
Sammamish,WA,47.6017,-122.0416,65892
Shawnee,KS,39.0158,-94.8076,65807
Jupiter,FL,26.9199,-80.1128,65791
Doral,FL,25.8151,-80.3565,65741
Florence-Graham,CA,33.9682,-118.2447,65716
Carbondale,IL,37.7221,-89.2238,65671
Blaine,MN,45.1696,-93.2077,65607
Weirton,WV,40.406,-80.5671,65578
Tulare,CA,36.1996,-119.34,65496
Wellington,FL,26.6461,-80.2699,65398
Pflugerville,TX,30.452,-97.6022,65380
Palo Alto,CA,37.3913,-122.1468,65364
Schenectady,NY,42.8025,-73.9276,65273
Great Falls,MT,47.5022,-111.2995,65131
Michigan City,IN,41.7099,-86.8705,65058
Bayonne,NJ,40.6661,-74.1141,64897
Eden Prairie,MN,44.8488,-93.4595,64893
Port Orange,FL,29.1084,-81.0137,64842
Dublin,CA,37.7161,-121.8963,64826
Grand Forks,ND,47.9218,-97.0886,64748
Noblesville,IN,40.0354,-86.0042,64668
San Clemente,CA,33.4498,-117.6103,64558
Brentwood,CA,37.9355,-121.7191,64474
Carmichael,CA,38.6337,-121.323,64454
East Orange,NJ,40.7651,-74.2117,64367
Eastvale,CA,33.9617,-117.5802,64157
Chapel Hill,NC,35.927,-79.0391,64051
Rocky Mount,NC,35.9676,-77.8048,64018
Haverhill,MA,42.7838,-71.0871,64014
Beloit,WI,42.523,-89.0184,63762
Glens Falls,NY,43.3109,-73.6459,63499
Brentwood,NY,40.7839,-73.2522,63399
Fairbanks,AK,64.8353,-147.6534,63245
Springfield,OR,44.0538,-122.981,63230
Bethesda,MD,38.9866,-77.1188,63195
Johnstown,PA,40.3258,-78.9193,63141
Dundalk,MD,39.2703,-76.4942,63015
Castro Valley,CA,37.7091,-122.0631,63013
Coon Rapids,MN,45.1755,-93.3095,62998
Elmira,NY,42.0938,-76.8097,62989
Mankato,MN,44.1712,-93.9773,62889
Albany,OR,44.6274,-123.0966,62880
North Miami,FL,25.9007,-80.1686,62822
Encinitas,CA,33.049,-117.2613,62709
Skokie,IL,42.0359,-87.74,62700
Leander,TX,30.5728,-97.8618,62608
Parkersburg,WV,39.2624,-81.542,62566
Waltham,MA,42.3889,-71.2423,62495
Port Charlotte,FL,26.9918,-82.114,62327
Palm Harbor,FL,28.0847,-82.7481,62310
San Luis Obispo,CA,35.2669,-120.6691,62290
Sebring,FL,27.477,-81.453,62250
Council Bluffs,IA,41.2369,-95.8517,62166
Hamilton,OH,39.3938,-84.5653,62082
Moore,OK,35.3293,-97.4758,62055
Pico Rivera,CA,33.9902,-118.0888,62027
Casa Grande,AZ,32.9068,-111.7624,61966
Monessen,PA,40.1519,-79.8828,61960
Montebello,CA,34.0155,-118.1108,61954
Rome,GA,34.2661,-85.1862,61537
The Hammocks,FL,25.67,-80.4483,61516
Millcreek,UT,40.6892,-111.8291,61450
Sanford,FL,28.7893,-81.276,61448
National City,CA,32.6654,-117.0983,61394
Mayaguez,PR,18.2003,-67.1397,61361
Burnsville,MN,44.7648,-93.2795,61339
Coconut Creek,FL,26.2803,-80.1842,61248
Morristown,TN,36.2046,-83.3006,61171
Reston,VA,38.9497,-77.3461,61147
Lakewood,WA,47.1628,-122.5299,61037
Spring,TX,30.0613,-95.383,60976
Gadsden,AL,34.009,-86.0156,60944
Taylor,MI,42.226,-83.2688,60922
Novi,MI,42.4786,-83.4893,60896
Marietta,GA,33.9533,-84.5422,60867
Hot Springs,AR,34.4892,-93.0501,60767
Woodland,CA,38.6712,-121.75,60598
Fountainebleau,FL,25.7723,-80.3458,60547
La Habra,CA,33.9278,-117.9513,60513
Malden,MA,42.4305,-71.0576,60470
South Whittier,CA,33.9336,-118.0311,60357
Commerce City,CO,39.8642,-104.8434,60336
South Hill,WA,47.1203,-122.2848,60172
Bristol,CT,41.6812,-72.9407,59947
Columbus,IN,39.2093,-85.9183,59897
West Allis,WI,43.0068,-88.0296,59890
Taylorsville,UT,40.657,-111.9493,59805
Bangor,ME,44.8322,-68.7906,59772
Monterey Park,CA,34.0497,-118.1326,59669
Greenwood,IN,39.6019,-86.1073,59458
Bartlett,TN,35.2337,-89.8195,59440
Bradenton,FL,27.49,-82.5739,59439
Pontiac,MI,42.6493,-83.2878,59438
Staunton,VA,38.1593,-79.0611,59433
Meriden,CT,41.5367,-72.7944,59395
Gardena,CA,33.8944,-118.3073,59329
Apex,NC,35.7239,-78.8728,59300
Royal Oak,MI,42.5084,-83.1539,59277
Cupertino,CA,37.3168,-122.0465,59276
La Mesa,CA,32.7703,-117.0204,59249
Benton Harbor,MI,42.1159,-86.4488,59216
St. Clair Shores,MI,42.4921,-82.8957,58984
Des Plaines,IL,42.0345,-87.9009,58899
Lewiston,ME,44.0915,-70.1681,58802
Margate,FL,26.2466,-80.2119,58796
Midland,MI,43.6241,-84.2319,58787
Carson City,NV,39.1512,-119.7474,58756
Bowie,MD,38.9569,-76.7409,58643
Middletown,NY,41.4459,-74.4236,58592
Caldwell,ID,43.6453,-116.6591,58481
San Rafael,CA,37.9905,-122.5222,58440
Richland,WA,46.2824,-119.2938,58225
St. Peters,MO,38.7824,-90.6061,58212
Wesley Chapel,FL,28.2106,-82.3238,58208
Hendersonville,TN,36.3063,-86.5998,58113
White Plains,NY,41.022,-73.7549,58109
Huntersville,NC,35.4058,-80.8727,58098
Santee,CA,32.8554,-116.9851,58081
Jefferson City,MO,38.5676,-92.1759,58025
Beckley,WV,37.7878,-81.1841,57942
Arcadia,CA,34.1342,-118.0373,57939
Titusville,FL,28.5727,-80.8193,57891
Cartersville,GA,34.1639,-84.8007,57873
Walla Walla,WA,46.067,-118.3366,57860
Orland Park,IL,41.6074,-87.8619,57857
Towson,MD,39.3944,-76.619,57817
Weymouth,MA,42.1984,-70.9466,57746
Parker,CO,39.5084,-104.7753,57706
Palm Beach Gardens,FL,26.8466,-80.1679,57704
Bozeman,MT,45.6832,-111.0552,57695
East Stroudsburg,PA,41.0023,-75.1779,57577
Huntington Park,CA,33.98,-118.2167,57509
Taunton,MA,41.9036,-71.0943,57464
Midwest City,OK,35.463,-97.3709,57407
Medford,MA,42.4234,-71.1087,57341
Goldsboro,NC,35.3778,-77.972,57278
Euless,TX,32.8508,-97.0799,57197
Manhattan,KS,39.1886,-96.6046,57046
Shoreline,WA,47.7564,-122.3426,57027
Lake Havasu City,AZ,34.5006,-114.3113,56820
Smyrna,GA,33.8633,-84.5168,56666
Cape Girardeau,MO,37.3108,-89.5597,56551
Tamiami,FL,25.7556,-80.4016,56225
Kendale Lakes,FL,25.7081,-80.4078,56182
Grants Pass,OR,42.4333,-123.3317,55837
Blue Springs,MO,39.0124,-94.2721,55829
Southaven,MS,34.9514,-89.9787,55780
Tinley Park,IL,41.567,-87.805,55773
Diamond Bar,CA,33.9991,-117.8161,55720
Pittsfield,MA,42.4517,-73.2605,55697
Eagle Pass,TX,28.7125,-100.484,55686
New Brunswick,NJ,40.487,-74.445,55676
Lenexa,KS,38.9609,-94.8018,55625
Hazleton,PA,40.9504,-75.9724,55604
Twin Falls,ID,42.5645,-114.4615,55556
Brookhaven,GA,33.8744,-84.3314,55554
Novato,CA,38.092,-122.5576,55516
Tigard,OR,45.4237,-122.7845,55514
Highland,CA,34.1113,-117.1654,55417
Fountain Valley,CA,33.7105,-117.9514,55357
Dearborn Heights,MI,42.3164,-83.2769,55353
Grapevine,TX,32.9343,-97.0744,55281
Fond du Lac,WI,43.7718,-88.4396,55209
Hacienda Heights,CA,33.997,-117.9728,55188
Ithaca,NY,42.4442,-76.5032,55137
Apple Valley,MN,44.7457,-93.2006,55135
Chicopee,MA,42.1764,-72.5719,55126
Oak Lawn,IL,41.7139,-87.7528,55022
Cathedral City,CA,33.8363,-116.4642,55007
Delano,CA,35.767,-119.2637,54917
Bentonville,AR,36.3546,-94.2306,54909
Stonecrest,GA,33.6842,-84.1372,54903
Kettering,OH,39.6957,-84.1495,54855
Colton,CA,34.0538,-117.3254,54824
Kingston,NY,41.9295,-73.9968,54791
West Haven,CT,41.2739,-72.9672,54620
St. Cloud,FL,28.2294,-81.2829,54579
Normal,IL,40.5218,-88.9881,54469
Berwyn,IL,41.8433,-87.7909,54391
Milford,CT,41.2256,-73.0616,54328
Aloha,OR,45.492,-122.8726,54287
Arroyo Grande,CA,35.1241,-120.5845,54177
Minnetonka,MN,44.9322,-93.4598,54064
Rosemead,CA,34.0689,-118.0823,54058
Paramount,CA,33.8976,-118.1652,53955
Yucaipa,CA,34.0336,-117.0429,53921
Brunswick,GA,31.145,-81.474,53914
Williamsport,PA,41.2398,-77.0371,53861
Elyria,OH,41.3761,-82.1063,53757
Leesburg,VA,39.1058,-77.5544,53727
Mount Prospect,IL,42.0641,-87.9375,53719
Pinellas Park,FL,27.8589,-82.7078,53637
Bellevue,NE,41.1535,-95.9357,53544
West Sacramento,CA,38.5557,-121.5504,53519
Apopka,FL,28.7014,-81.5304,53447
Lewiston,ID,46.3934,-116.9934,53384
Grand Island,NE,40.9214,-98.3584,53296
Palm Desert,CA,33.7378,-116.3695,53275
Milford city ,CT,41.2256,-73.0625,53195
Watertown,NY,43.9734,-75.9094,53163
Little Elm,TX,33.1856,-96.929,53126
Chambersburg,PA,39.9315,-77.6556,53083
Revere,MA,42.4192,-71.0036,53073
Peabody,MA,42.5335,-70.9724,53070
Wylie,TX,33.0362,-96.5161,53067
Beaufort,SC,32.4597,-80.7235,53051
Aspen Hill,MD,39.0928,-77.0823,53049
DeSoto,TX,32.5992,-96.8633,52988
Helena,MT,46.5965,-112.0202,52936
Edina,MN,44.8914,-93.3602,52857
Wheaton,IL,41.8561,-88.1083,52745
West New York,NJ,40.7856,-74.0093,52723
Hoboken,NJ,40.7453,-74.0279,52677
Lacey,WA,47.046,-122.7934,52592
Summerville,SC,33.0015,-80.1799,52549
Oak Park,IL,41.8872,-87.7899,52381
Maricopa,AZ,33.0404,-112.0006,52127
Lompoc,CA,34.6618,-120.4714,52020
Kentwood,MI,42.8852,-85.5925,51898
Levittown,PA,40.1537,-74.853,51818
Sierra Vista,AZ,31.563,-110.3153,51731
Levittown,NY,40.7241,-73.5125,51634
Madison,AL,34.7114,-86.7626,51593
Smyrna,TN,35.9722,-86.5253,51586
Glendora,CA,34.1449,-117.8468,51544
Burien,WA,47.4762,-122.3394,51500
Perth Amboy,NJ,40.5203,-74.2724,51390
Herriman,UT,40.4899,-112.0171,51348
Farmington,NM,36.7555,-108.1823,51309
New Bern,NC,35.0955,-77.0723,51308
Placentia,CA,33.8807,-117.8553,51233
Hinesville,GA,31.8247,-81.6135,51206
Beaumont,CA,33.9076,-116.9766,51063
Collierville,TN,35.0471,-89.6988,51040
West Lafayette,IN,40.4432,-86.9239,50996
Florissant,MO,38.7996,-90.3269,50952
Hoffman Estates,IL,42.0639,-88.1468,50932
Queen Creek,AZ,33.2386,-111.6343,50890
Aliso Viejo,CA,33.5792,-117.7289,50887
Kannapolis,NC,35.4764,-80.6403,50841
Methuen Town,MA,42.734,-71.1889,50706
Sahuarita,AZ,31.9323,-110.9654,50616
Traverse City,MI,44.7547,-85.6035,50522
Severn,MD,39.1355,-76.6958,50496
Catalina Foothills,AZ,32.3041,-110.8835,50454
Galveston,TX,29.2487,-94.891,50446
Country Club,FL,25.9407,-80.3102,50431
Cookeville,TN,36.1484,-85.5114,50408
Mishawaka,IN,41.6736,-86.1669,50363
Rowland Heights,CA,33.9716,-117.8911,50347
Plainfield,NJ,40.6154,-74.4157,50317
Bullhead City,AZ,35.1205,-114.546,50309
Stillwater,OK,36.1316,-97.074,50299
Forney,TX,32.744,-96.4529,50251
Wheaton,MD,39.0492,-77.0572,50229
Azusa,CA,34.1386,-117.9124,49974
North Bethesda,MD,39.0393,-77.1191,49872
Cerritos,CA,33.8677,-118.0686,49859
Ashburn,VA,39.03,-77.4711,49848
Bloomsburg,PA,41.0027,-76.4561,49840
Morehead City,NC,34.7308,-76.7387,49760
Coral Gables,FL,25.7037,-80.2715,49700
Enid,OK,36.4061,-97.8701,49688
Lakewood,OH,41.4824,-81.8008,49678
Oroville,CA,39.4999,-121.5634,49513
Wilson,NC,35.7312,-77.9284,49483
Lawrence,IN,39.8674,-85.9905,49462
Portage,MI,42.2,-85.5906,49445
Minot,ND,48.2375,-101.2781,49425
Dunwoody,GA,33.9418,-84.3122,49356
Poway,CA,32.9871,-117.0201,49323
San Jacinto,CA,33.797,-116.9916,49215
Troy,NY,42.7354,-73.6751,49154
Newark,CA,37.5204,-122.0312,49149
Cuyahoga Falls,OH,41.1641,-81.5207,49106
Downers Grove,IL,41.7949,-88.017,49057
Bedford,TX,32.8464,-97.135,49049
Reedley,CA,36.5987,-119.4473,49042
Dublin,OH,40.1112,-83.1454,49037
Marana,AZ,32.4355,-111.1558,49030
Cypress,CA,33.8171,-118.0386,49006
Hollister,CA,36.8563,-121.3981,48992
Murray,UT,40.6498,-111.8874,48917
Roswell,NM,33.373,-104.5294,48889
Pascagoula,MS,30.3665,-88.5507,48869
Tuckahoe,VA,37.5878,-77.5858,48799
Ceres,CA,37.5953,-120.9625,48706
St. Louis Park,MN,44.9488,-93.3649,48662
Rio Grande City,TX,26.3808,-98.8215,48610
Draper,UT,40.4957,-111.8605,48587
Palm Springs,CA,33.8017,-116.5382,48518
Paducah,KY,37.0711,-88.6436,48481
Findlay,OH,41.0467,-83.6379,48469
University,FL,28.0771,-82.4335,48436
Bel Air South,MD,39.5051,-76.3197,48425
Antelope,CA,38.7153,-121.361,48398
Kyle,TX,29.9937,-97.8859,48393
Monroe,MI,41.9154,-83.385,48317
Lincoln,CA,38.8759,-121.2916,48275
Ocoee,FL,28.5787,-81.5338,48263
Burleson,TX,32.517,-97.3343,48225
La Mirada,CA,33.9025,-118.0093,48183
Farmers Branch,TX,32.9272,-96.8804,48158
East Lansing,MI,42.748,-84.4835,48145
Uniontown,PA,39.8994,-79.7244,48137
Jeffersonville,IN,38.3376,-85.7026,48126
Winder,GA,33.9917,-83.7218,48125
Wauwatosa,WI,43.0615,-88.0347,48118
Littleton,CO,39.5915,-105.0188,48065
Cumberland,MD,39.6515,-78.7585,47980
Cedar Hill,TX,32.581,-96.9591,47930
Carrollton,GA,33.5817,-85.0837,47920
Rancho Santa Margarita,CA,33.6318,-117.5989,47896
Beavercreek,OH,39.731,-84.0624,47741
Niagara Falls,NY,43.0921,-79.0147,47720
McLean,VA,38.9436,-77.1943,47682
North Highlands,CA,38.6713,-121.3721,47661
East Providence,RI,41.8065,-71.3565,47618
Florin,CA,38.4832,-121.4042,47555
East Honolulu,HI,21.2975,-157.7211,47540
Chesterfield,MO,38.6588,-90.5804,47538
Covina,CA,34.0903,-117.8817,47450
Bothell,WA,47.7735,-122.2044,47415
Glenview,IL,42.0825,-87.8216,47308
Mentor,OH,41.6895,-81.3361,47262
Keller,TX,32.9337,-97.2255,47213
Danville,IL,40.1423,-87.6114,47059
Spring Hill,TN,35.7438,-86.9116,47042
Roseville,MI,42.5074,-82.9369,47018
Elmhurst,IL,41.8973,-87.9432,46746
New Philadelphia,OH,40.486,-81.4402,46698
Sandusky,OH,41.4437,-82.7149,46655
El Dorado Hills,CA,38.675,-121.049,46593
Salina,KS,38.8137,-97.6143,46550
Euclid,OH,41.5904,-81.5188,46550
Kingman,AZ,35.217,-114.0105,46524
Everett,MA,42.4064,-71.0545,46451
Farmington,MO,37.7821,-90.4288,46331
Weatherford,TX,32.7536,-97.7723,46268
Middletown,CT,41.5476,-72.6549,46258
Roseburg,OR,43.2232,-123.3518,46228
Biloxi,MS,30.4422,-88.9512,46212
Leavenworth,KS,39.3239,-94.924,46192
Fort Pierce,FL,27.4256,-80.3431,46103
Winter Garden,FL,28.5421,-81.5966,46051
Oro Valley,AZ,32.4208,-110.9768,46044
Morgan Hill,CA,37.1326,-121.6417,45952
Potomac,MD,39.0141,-77.1943,45940
Pinehurst,NC,35.1922,-79.4684,45935
Danville,VA,36.5831,-79.4087,45890
Rockwall,TX,32.9169,-96.4377,45888
Coachella,CA,33.6905,-116.143,45743
Wake Forest,NC,35.9629,-78.5141,45629
Pearl City,HI,21.4031,-157.9566,45605
Tupelo,MS,34.2692,-88.7318,45466
Attleboro,MA,41.9311,-71.295,45237
Pine Bluff,AR,34.2116,-92.0178,45204
Oakland Park,FL,26.178,-80.1528,45202
Marion,OH,40.5933,-83.1237,45181
Hilo,HI,19.6886,-155.0864,45056
Lufkin,TX,31.3217,-94.7277,44867
Altadena,CA,34.1928,-118.1345,44850
Manitowoc,WI,44.0991,-87.6811,44770
Lake Ridge,VA,38.6843,-77.3059,44716
Selma,CA,36.5715,-119.6143,44703
Strongsville,OH,41.3128,-81.8313,44660
Danville,CA,37.8121,-121.9698,44510
Quincy,IL,39.9335,-91.3799,44466
Lancaster,OH,39.7249,-82.6049,44447
Riverton,UT,40.5177,-111.9635,44440
The Colony,TX,33.0925,-96.8977,44438
Urbandale,IA,41.639,-93.7813,44379
Plainfield,IL,41.6206,-88.2252,44308
Lombard,IL,41.8742,-88.0157,44303
Prescott,AZ,34.585,-112.4475,44299
North Lauderdale,FL,26.2113,-80.2209,44262
Eureka,CA,40.7942,-124.1568,44236
Hackensack,NJ,40.889,-74.0461,44188
Sayreville,NJ,40.4656,-74.3237,44173
Altamonte Springs,FL,28.6615,-81.3953,44143
Del Rio,TX,29.3708,-100.88,44121
Cleveland Heights,OH,41.5112,-81.5636,43992
Bountiful,UT,40.8722,-111.8647,43981
Desert Hot Springs,CA,33.9551,-116.543,43914
Peachtree Corners,GA,33.967,-84.2319,43905
Haltom City,TX,32.8176,-97.2707,43874
Ormond Beach,FL,29.296,-81.1003,43759
Cutler Bay,FL,25.5765,-80.3356,43718
Trujillo Alto,PR,18.3601,-66.0103,43703
Adrian,MI,41.8994,-84.0446,43689
Goose Creek,SC,32.9925,-80.0054,43665
Moorhead,MN,46.8673,-96.7461,43652
Westfield,IN,40.0333,-86.1532,43649
Concord,NH,43.2305,-71.5595,43627
Annandale,VA,38.8324,-77.196,43295
Rohnert Park,CA,38.348,-122.6964,43291
Brea,CA,33.9254,-117.8656,43255
Klamath Falls,OR,42.2191,-121.7754,43246
Salem,MA,42.5129,-70.902,43226
Channelview,TX,29.7914,-95.1145,43055
North Miami Beach,FL,25.9302,-80.166,43041
Whitney,NV,36.1005,-115.038,42973
Freeport,NY,40.6515,-73.585,42956
Centralia,WA,46.7226,-122.9696,42922
Gallatin,TN,36.3782,-86.4696,42918
Stevens Point,WI,44.5241,-89.5508,42837
San Bruno,CA,37.6254,-122.4313,42807
Burke,VA,38.7773,-77.2633,42806
Brentwood,TN,35.9918,-86.7758,42783
North Fort Myers,FL,26.7243,-81.8491,42770
Hicksville,NY,40.7637,-73.5245,42709
West Babylon,NY,40.7112,-73.3567,42665
Edmonds,WA,47.8115,-122.3533,42605
Apache Junction,AZ,33.3985,-111.5351,42571
Fairfield,OH,39.3301,-84.5409,42558
Oakley,CA,37.9929,-121.6951,42543
Hutchinson,KS,38.0671,-97.9081,42531
Greenwood,SC,34.1945,-82.1542,42429
Richmond,IN,39.8318,-84.8905,42373
Linden,NJ,40.6251,-74.2381,42361
Puyallup,WA,47.1794,-122.2902,42361
Huntsville,TX,30.705,-95.5544,42241
Urbana,IL,40.1106,-88.1972,42214
Beverly,MA,42.5681,-70.8627,42174
Clovis,NM,34.4376,-103.1923,42168
Statesboro,GA,32.4376,-81.775,42102
Hobbs,NM,32.7282,-103.16,42095
McMinnville,OR,45.211,-123.1918,42062
Schertz,TX,29.5649,-98.2537,42042
Bell Gardens,CA,33.9663,-118.155,42012
Oviedo,FL,28.658,-81.1872,41860
Odenton,MD,39.0661,-76.6939,41846
Grove City,OH,39.8659,-83.0694,41820
Campbell,CA,37.2802,-121.9538,41793
Wentzville,MO,38.8152,-90.8667,41784
Woonsocket,RI,42.001,-71.4993,41751
La Quinta,CA,33.6536,-116.2785,41748
Weslaco,TX,26.1648,-97.9898,41629
Zanesville,OH,39.9565,-82.0132,41589
Newnan,GA,33.3766,-84.7761,41581
Shakopee,MN,44.7744,-93.4764,41570
Brighton,CO,39.9716,-104.7964,41554
Catonsville,MD,39.2646,-76.7424,41547
Rancho Palos Verdes,CA,33.7554,-118.3637,41530
Mableton,GA,33.8132,-84.5656,41487
Coppell,TX,32.9638,-96.9905,41421
Linton Hall,VA,38.7551,-77.575,41386
Moline,IL,41.4821,-90.4921,41356
Delaware,OH,40.2866,-83.0747,41283
Westfield,MA,42.1382,-72.7561,41204
Shelton,CT,41.306,-73.1383,41129
Greenacres,FL,26.6272,-80.1371,41117
Westerville,OH,40.1241,-82.9209,41103
Manassas,VA,38.7479,-77.4839,41085
Kearny,NJ,40.7528,-74.1202,41058
Los Banos,CA,37.063,-120.8406,41036
Richmond,KY,37.7306,-84.2926,40972
Spanish Fork,UT,40.1101,-111.6406,40913
Belleville,IL,38.5165,-89.99,40897
Maplewood,MN,44.9842,-93.0247,40885
Wilkes-Barre,PA,41.2468,-75.8759,40766
Pottsville,PA,40.6798,-76.2092,40685
Columbia,TN,35.6235,-87.0486,40663
Bartlett,IL,41.9803,-88.2069,40647
Bluefield,WV,37.2608,-81.2143,40640
Fitchburg,MA,42.5912,-71.8156,40638
Marion,IN,40.5496,-85.66,40588
Cedar Falls,IA,42.5195,-92.4534,40536
Buffalo Grove,IL,42.1673,-87.9616,40494
Jamestown,NY,42.0975,-79.2366,40493
Woodlawn,MD,39.3054,-76.7489,40469
Clarksburg,WV,39.2863,-80.323,40403
Royal Palm Beach,FL,26.7038,-80.2241,40396
Marion,IA,42.045,-91.5846,40359
Covington,KY,39.0334,-84.5166,40341
Coram,NY,40.8813,-73.0059,40311
Friendswood,TX,29.5111,-95.1979,40290
Indian Trail,NC,35.0698,-80.6457,40252
Woburn,MA,42.4869,-71.1543,40228
The Acreage,FL,26.7741,-80.2779,40177
Holyoke,MA,42.2125,-72.6411,40117
Montclair,CA,34.0714,-117.698,40083
South Valley,NM,35.0092,-106.6819,40080
Torrington,CT,41.8349,-73.1281,40003
Cedar City,UT,37.6834,-113.0956,39995
San Gabriel,CA,34.0948,-118.099,39899
Hallandale Beach,FL,25.9854,-80.1423,39847
Crystal Lake,IL,42.2333,-88.3351,39829
Calexico,CA,32.6849,-115.4944,39825
Lake Oswego,OR,45.413,-122.7003,39822
Amherst,MA,42.3645,-72.5069,39814
Muskogee,OK,35.7431,-95.3568,39789
Romeoville,IL,41.6318,-88.0996,39746
Plant City,FL,28.014,-82.1201,39744
Keizer,OR,45.0029,-123.0241,39713
New Berlin,WI,42.9726,-88.1291,39691
Chelsea,MA,42.3959,-71.0325,39690
La Puente,CA,34.0323,-117.9533,39614
Roy,UT,41.1715,-112.0485,39613
Security-Widefield,CO,38.7489,-104.7142,39612
Marlborough,MA,42.3494,-71.5468,39597
Milton,GA,34.1353,-84.3138,39587
Issaquah,WA,47.544,-122.0471,39509
Waipahu,HI,21.3858,-158.0103,39469
Essex,MD,39.3024,-76.4457,39437
Bartlesville,OK,36.7357,-95.9453,39301
Lancaster,TX,32.5922,-96.7737,39228
Streamwood,IL,42.0209,-88.1778,39228
Germantown,TN,35.0829,-89.7825,39225
Annapolis,MD,38.9706,-76.5047,39223
Carol Stream,IL,41.9182,-88.1308,39203
Asheboro,NC,35.7158,-79.8129,39192
Culver City,CA,34.0058,-118.3968,39185
Kalispell,MT,48.2156,-114.3262,39182
Arecibo,PR,18.4491,-66.7387,39176
Lynnwood,WA,47.8284,-122.3033,39141
Mooresville,NC,35.5849,-80.8265,39132
Brookfield,WI,43.064,-88.1231,39115
Crestview,FL,30.748,-86.5784,39072
Horizon West,FL,28.4417,-81.6145,39065
Clinton,MD,38.7499,-76.9063,39018
Moses Lake,WA,47.128,-119.2761,39002
New Castle,PA,40.9956,-80.3459,38930
Olive Branch,MS,34.961,-89.8469,38924
Enterprise,AL,31.3276,-85.8459,38914
Sun City,AZ,33.6165,-112.2819,38877
Frankfort,KY,38.1924,-84.8643,38852
Northglenn,CO,39.9108,-104.9783,38819
Warren,OH,41.239,-80.8174,38752
Duncanville,TX,32.646,-96.9127,38751
Hurst,TX,32.8353,-97.1808,38655
Clermont,FL,28.5402,-81.7259,38654
Wheeling,IL,42.1308,-87.924,38646
Fort Lee,NJ,40.8509,-73.9712,38605
Pacifica,CA,37.6112,-122.4781,38546
Lake Worth,FL,26.6196,-80.0591,38526
Lebanon,TN,36.204,-86.3481,38518
Kendall West,FL,25.7065,-80.4388,38433
Land O' Lakes,FL,28.2075,-82.4476,38410
Eagle Mountain,UT,40.3137,-112.0114,38391
Reynoldsburg,OH,39.9587,-82.7944,38327
Oxford,MS,34.3627,-89.5336,38310
Rosenberg,TX,29.546,-95.822,38307
Martinez,CA,37.9985,-122.116,38297
Pleasant Grove,UT,40.3716,-111.7412,38258
La Presa,CA,32.711,-117.0027,38227
Severna Park,MD,39.087,-76.5687,38188
Huber Heights,OH,39.8595,-84.113,38154
Stanton,CA,33.8002,-117.9935,38139
East Meadow,NY,40.7197,-73.5604,38029
Menomonee Falls,WI,43.1487,-88.1227,38014
Granbury,TX,32.4484,-97.7685,37996
Waxahachie,TX,32.4032,-96.8444,37988
Valrico,FL,27.9193,-82.2293,37980
Mission Bend,TX,29.6948,-95.6657,37979
Holly Springs,NC,35.653,-78.8397,37812
Butler,PA,40.8616,-79.8962,37796
Albertville,AL,34.2634,-86.2107,37775
London,KY,37.1175,-84.0767,37714
Egypt Lake-Leto,FL,28.0177,-82.5062,37704
Cottage Grove,MN,44.8161,-92.9274,37604
Kailua,HI,21.392,-157.7396,37586
St. Marys,GA,30.7567,-81.5722,37556
Mechanicsville,VA,37.6262,-77.3561,37496
Richmond West,FL,25.6105,-80.4297,37486
Cleburne,TX,32.357,-97.4152,37468
Valley Stream,NY,40.6647,-73.7044,37431
Hanover Park,IL,41.9819,-88.1447,37426
Oswego,NY,43.4516,-76.5005,37420
Navarre,FL,30.4174,-86.8907,37362
Oregon City,OR,45.3415,-122.5927,37339
Winter Springs,FL,28.6889,-81.2704,37312
Parkland,WA,47.1417,-122.4376,37303
Pahrump,NV,36.2411,-116.0176,37298
Carpentersville,IL,42.1227,-88.2895,37254
Wildomar,CA,33.6173,-117.2582,37229
Greenfield,WI,42.9619,-88.0051,37221
Braintree,MA,42.2039,-71.0022,37190
Rock Island,IL,41.4699,-90.5827,37176
South Miami Heights,FL,25.5886,-80.3862,37119
Evans,GA,33.5619,-82.1351,37114
West Fargo,ND,46.8573,-96.9057,37058
Mount Juliet,TN,36.1991,-86.5114,37029
San Juan,TX,26.1903,-98.152,37008
Oakton,VA,38.8887,-77.3016,36997
Georgetown,KY,38.2249,-84.5482,36994
Portage,IN,41.5866,-87.1792,36988
Aventura,FL,25.9565,-80.1372,36987
Owasso,OK,36.2882,-95.8328,36957
Commack,NY,40.8443,-73.2834,36953
Park Ridge,IL,42.0125,-87.8436,36950
Foley,AL,30.3983,-87.6649,36921
New Albany,IN,38.3089,-85.8234,36843
Benton,AR,34.5775,-92.5712,36820
Meridian,MS,32.3846,-88.6896,36686
Bettendorf,IA,41.5656,-90.4764,36543
Dunedin,FL,28.0329,-82.7863,36537
Hilliard,OH,40.0353,-83.1578,36534
Merritt Island,FL,28.3146,-80.6713,36532
Phenix City,AL,32.4588,-85.0251,36487
Addison,IL,41.9314,-88.0085,36482
West Hollywood,CA,34.0882,-118.3718,36475
Roseville,MN,45.0155,-93.1545,36457
Oakville,MO,38.4472,-90.3199,36407
Tucker,GA,33.8436,-84.2021,36395
Moorpark,CA,34.2855,-118.877,36375
Richfield,MN,44.8762,-93.2833,36354
Monrovia,CA,34.165,-117.9921,36331
Kearns,UT,40.652,-112.0093,36330
Oak Creek,WI,42.8803,-87.9009,36325
Lincoln Park,MI,42.2432,-83.1811,36321
Claremont,CA,34.1259,-117.7153,36266
Oswego,IL,41.6834,-88.3372,36252
Post Falls,ID,47.7213,-116.9385,36250
Peachtree City,GA,33.3943,-84.5712,36223
Lauderdale Lakes,FL,26.1682,-80.2017,36194
French Valley,CA,33.5998,-117.1069,36126
Portsmouth,OH,38.7539,-82.9446,36111
Shawnee,OK,35.3529,-96.965,36067
Gillette,WY,44.2752,-105.4983,36032
Tooele,UT,40.5393,-112.3082,36015
Prattville,AL,32.4605,-86.4588,35957
Woodburn,OR,45.1473,-122.8603,35941
Watertown Town,MA,42.37,-71.1774,35939
Calumet City,IL,41.6134,-87.5505,35913
San Juan Capistrano,CA,33.5009,-117.6544,35911
Foothill Farms,CA,38.6867,-121.3475,35881
Elmont,NY,40.7033,-73.7078,35824
Franklin,WI,42.8854,-88.0104,35811
Temple City,CA,34.1021,-118.0579,35811
Cooper City,FL,26.0463,-80.2862,35800
El Mirage,AZ,33.5905,-112.3271,35753
Meadow Woods,FL,28.3698,-81.3467,35726
LaGrange,GA,33.0274,-85.0384,35721
La Vergne,TN,36.0203,-86.5582,35716
Middletown,DE,39.4453,-75.7166,35695
Mount Pleasant,MI,43.5966,-84.7759,35694
Carrollwood,FL,28.0577,-82.5149,35686
Junction City,KS,39.0271,-96.8496,35677
Inver Grove Heights,MN,44.8247,-93.0596,35672
Chillum,MD,38.9667,-76.979,35557
Monroe,NC,35.0061,-80.5595,35540
Randallstown,MD,39.3723,-76.8024,35528
Bell,CA,33.9801,-118.1798,35521
Gahanna,OH,40.0251,-82.8637,35483
Sanford,NC,35.4874,-79.1772,35467
Riviera Beach,FL,26.7812,-80.0742,35463
Wildwood,MO,38.5799,-90.6699,35432
Upper Arlington,OH,40.0272,-83.0704,35366
Auburn,CA,38.895,-121.0778,35311
Plainfield,IN,39.6953,-86.3717,35287
Westmont,CA,33.9417,-118.3018,35266
Oak Harbor,WA,48.2965,-122.6333,35228
Olney,MD,39.1465,-77.0715,35191
Manhattan Beach,CA,33.8895,-118.3972,35183
New City,NY,41.1543,-73.9909,35101
Owings Mills,MD,39.4115,-76.7913,35081
La Porte,TX,29.6689,-95.0484,34976
Englewood,CO,39.6468,-104.9942,34917
Brunswick,OH,41.2464,-81.8198,34880
East Point,GA,33.6696,-84.4701,34875
DeLand,FL,29.0224,-81.2873,34851
Martinez,GA,33.5209,-82.0985,34844
Pleasant Hill,CA,37.954,-122.0759,34839
Orangevale,CA,38.6881,-121.2209,34824
Merrillville,IN,41.4728,-87.3197,34792
Stow,OH,41.1765,-81.4344,34785
Buenaventura Lakes,FL,28.3349,-81.3539,34784
San Luis,AZ,32.4911,-114.7089,34778
Oildale,CA,35.4249,-119.0279,34763
Calhoun,GA,34.4918,-84.9391,34754
Leawood,KS,38.9076,-94.6258,34727
Menlo Park,CA,37.4686,-122.1672,34698
Sun Prairie,WI,43.1827,-89.2358,34661
Dakota Ridge,CO,39.6192,-105.1344,34659
Arcata,CA,40.8615,-124.0757,34616
Lockport,NY,43.1698,-78.6956,34561
Pullman,WA,46.734,-117.1669,34506
Boardman,OH,41.0334,-80.6671,34431
Nacogdoches,TX,31.6134,-94.6528,34420
Kearney,NE,40.701,-99.0834,34418
Vestavia Hills,AL,33.4518,-86.7438,34413
North Ridgeville,OH,41.3851,-82.0194,34392
Socorro,TX,31.6384,-106.2601,34370
Randolph,MA,42.1778,-71.0539,34362
Norristown,PA,40.1224,-75.3398,34341
Montgomery Village,MD,39.1783,-77.1957,34332
Redmond,OR,44.2631,-121.1798,34240
Firestone,CO,40.1563,-104.9494,34230
Goshen,IN,41.5743,-85.8308,34217
Butte,MT,45.902,-112.6571,34207
Russellville,AR,35.2763,-93.1383,34205
Grass Valley,CA,39.2237,-121.0521,34196
Parkland,FL,26.3218,-80.2533,34170
University City,MO,38.6657,-90.3315,34165
Midvale,UT,40.6148,-111.8928,34124
Golden Glades,FL,25.9129,-80.2013,34109
Franklin,MA,42.0862,-71.4113,34087
Kennesaw,GA,34.026,-84.6177,34077
Adelanto,CA,34.5815,-117.4397,34049
Ken Caryl,CO,39.577,-105.1144,34040
Carlsbad,NM,32.4011,-104.2389,34031
University Place,WA,47.2147,-122.5461,34001
Chester,PA,39.8456,-75.3718,34000
Douglasville,GA,33.7384,-84.7065,33992
Salisbury,NC,35.6656,-80.4909,33988
Laramie,WY,41.3099,-105.6085,33929
Lake Stevens,WA,48.0028,-122.096,33911
Foster City,CA,37.5553,-122.2659,33901
Valparaiso,IN,41.4782,-87.0507,33897
Fairborn,OH,39.801,-84.0093,33876
Estero,FL,26.4277,-81.7951,33871
Mason,OH,39.3571,-84.3023,33870
Cottonwood Heights,UT,40.6137,-111.8144,33843
Kaneohe,HI,21.4062,-157.7904,33841
Sonoma,CA,38.2902,-122.4598,33831
Beverly Hills,CA,34.0786,-118.4021,33792
Galesburg,IL,40.9506,-90.3763,33767
Warsaw,IN,41.2448,-85.8464,33708
San Dimas,CA,34.1082,-117.809,33621
Glendale Heights,IL,41.9196,-88.0785,33617
Dana Point,CA,33.4733,-117.6968,33577
Midlothian,TX,32.4668,-96.9892,33532
Newark,DE,39.6776,-75.7573,33515
Alamogordo,NM,32.8837,-105.9624,33513
Alabaster,AL,33.2198,-86.8225,33487
Pikesville,MD,39.3893,-76.702,33486
Fair Oaks,VA,38.8653,-77.3586,33481
Deer Park,TX,29.6898,-95.1151,33474
Long Beach,NY,40.5887,-73.666,33454
Woodridge,IL,41.7368,-88.0408,33432
Bridgeton,NJ,39.4286,-75.2281,33379
Greer,SC,34.9313,-82.2315,33373
Springville,UT,40.1638,-111.6206,33310
Saratoga Springs,UT,40.3449,-111.9152,33282
Copperas Cove,TX,31.1192,-97.914,33235
American Fork,UT,40.3792,-111.7952,33161
Franklin,NJ,41.1101,-74.5886,33153
Andover,MN,45.2571,-93.3265,33140
Matthews,NC,35.1195,-80.7101,33138
Woodstock,GA,34.1026,-84.509,33039
Florence,KY,38.99,-84.647,33004
Northbrook,IL,42.1292,-87.8353,32958
West Little River,FL,25.857,-80.2367,32897
Fair Lawn,NJ,40.9359,-74.1177,32896
St. Charles,IL,41.9193,-88.3109,32887
Huntington Station,NY,40.8446,-73.405,32866
Fairmont,WV,39.4768,-80.1491,32847
Ridgecrest,CA,35.6308,-117.6621,32684
Massillon,OH,40.7838,-81.5254,32584
Spanaway,WA,47.0979,-122.4233,32575
Starkville,MS,33.4608,-88.8297,32546
Harker Heights,TX,31.0572,-97.6445,32421
Elk Grove Village,IL,42.0063,-87.9921,32400
Kaysville,UT,41.029,-111.9456,32390
Lawndale,CA,33.8884,-118.3531,32389
Southlake,TX,32.9545,-97.1503,32376
Ferry Pass,FL,30.5203,-87.1903,32376
Savage,MN,44.7544,-93.3631,32362
Des Moines,WA,47.3915,-122.3157,32348
Bethel Park,PA,40.3239,-80.0364,32345
Princeton,FL,25.5396,-80.3971,32299
Dania Beach,FL,26.0594,-80.1637,32271
Spring Valley,NY,41.1151,-74.0486,32261
Bowling Green,OH,41.3773,-83.65,32249
Springfield,VA,38.7809,-77.1839,32222
East Lake,FL,28.1205,-82.6868,32169
College Park,MD,38.996,-76.9337,32163
Coos Bay,OR,43.3789,-124.233,32159
Smithfield,NC,35.5131,-78.3497,32156
Rome,NY,43.226,-75.4909,32148
Clearfield,UT,41.103,-112.0237,32118
Liberty,MO,39.2394,-94.4191,32100
Eastpointe,MI,42.4657,-82.9461,32081
Franklin Square,NY,40.7002,-73.6775,32055
Pekin,IL,40.5679,-89.6262,32045
Westlake,OH,41.4524,-81.9295,32032
Uniondale,NY,40.7176,-73.5947,32007
Chillicothe,OH,39.3393,-82.9937,31999
La Verne,CA,34.1208,-117.7702,31974
Juneau,AK,58.4546,-134.1739,31974
Prairieville,LA,30.3151,-90.9571,31974
Placerville,CA,38.7308,-120.7978,31943
Bel Air North,MD,39.5544,-76.3733,31941
Redan,GA,33.7394,-84.1644,31873
Martinsville,VA,36.6827,-79.8636,31871
Pueblo West,CO,38.3551,-104.7266,31849
Garfield,NJ,40.8791,-74.1085,31802
Fallbrook,CA,33.3693,-117.2259,31701
Spring Valley,CA,32.7316,-116.9766,31650
Hopkinsville,KY,36.8386,-87.4776,31569
Rochester,NH,43.299,-70.9787,31526
South Riding,VA,38.912,-77.5132,31515
Centereach,NY,40.8696,-73.0808,31493
Milledgeville,GA,33.0874,-83.2414,31471
Syracuse,UT,41.086,-112.0698,31458
Parkville,MD,39.3832,-76.5519,31451
Sherwood,AR,34.8508,-92.2028,31436
Garner,NC,35.6934,-78.6196,31407
Key West,FL,24.5637,-81.7768,31401
Miami Lakes,FL,25.9125,-80.3214,31367
Petersburg,VA,37.2043,-77.3913,31346
North Olmsted,OH,41.415,-81.919,31341
Kahului,HI,20.8715,-156.4603,31336
Wheat Ridge,CO,39.7728,-105.1029,31324
Fruit Cove,FL,30.0972,-81.6176,31314
Cibolo,TX,29.5639,-98.2123,31281
Alliance,OH,40.9107,-81.1189,31255
Banning,CA,33.946,-116.8992,31221
Laguna Hills,CA,33.592,-117.6992,31207
Central Islip,NY,40.7837,-73.1945,31205
Athens,AL,34.7847,-86.951,31187
Princeton,NJ,40.3563,-74.6693,31187
Orcutt,CA,34.8668,-120.4269,31118
Naugatuck,CT,41.489,-73.0518,31108
Eldersburg,MD,39.4041,-76.9529,31108
Columbus,MS,33.5088,-88.4096,31084
Mundelein,IL,42.2691,-88.0101,31051
Fair Oaks,CA,38.6504,-121.2497,31032
San Pablo,CA,37.9628,-122.3425,30990
Rexburg,ID,43.8224,-111.792,30979
Nogales,AZ,31.3624,-110.9336,30917
Nicholasville,KY,37.8902,-84.5669,30912
Goleta,CA,34.436,-119.8596,30911
Opelika,AL,32.6612,-85.3769,30908
Algonquin,IL,42.1629,-88.3159,30897
Marrero,LA,29.8871,-90.1127,30894
Burlingame,CA,37.586,-122.3669,30889
Aiken,SC,33.531,-81.7268,30869
Lawrenceville,GA,33.9523,-83.9931,30834
Winter Park,FL,28.5987,-81.3438,30825
Lake Magdalene,FL,28.0875,-82.4791,30805
Fitchburg,WI,42.9859,-89.4255,30792
Granger,IN,41.7373,-86.135,30776
Wooster,OH,40.8171,-81.9335,30750
Fountain,CO,38.6886,-104.6829,30735
Brooklyn Center,MN,45.0681,-93.3162,30690
Kerrville,TX,30.0398,-99.132,30623
Barstow,CA,34.8661,-117.0472,30605
Oceanside,NY,40.6328,-73.6364,30604
Canton,GA,34.2467,-84.49,30528
Auburn,NY,42.9338,-76.5684,30507
Crown Point,IN,41.4141,-87.3457,30488
Windsor,CO,40.4693,-104.9213,30477
Lakeside,FL,30.1356,-81.7674,30458
Gloucester,MA,42.626,-70.6897,30430
Gurnee,IL,42.3708,-87.9392,30378
Orangeburg,SC,33.4928,-80.867,30365
Holladay,UT,40.6599,-111.8226,30325
Fuquay-Varina,NC,35.5958,-78.7794,30324
Chamblee,GA,33.8842,-84.3008,30307
Carney,MD,39.405,-76.5236,30289
Peru,IL,41.3484,-89.137,30287
Sterling,VA,39.0052,-77.405,30271
Cornelius,NC,35.4725,-80.8801,30257
North Tonawanda,NY,43.0457,-78.8659,30245
Long Branch,NJ,40.2965,-73.9915,30241
Santa Paula,CA,34.3521,-119.0698,30233
Los Gatos,CA,37.2303,-121.956,30222
South Lake Tahoe,CA,38.9393,-119.9828,30188
San Carlos,CA,37.4982,-122.268,30185
Clinton,IA,41.8434,-90.2408,30177
Saratoga,CA,37.2684,-122.0263,30153
Los Altos,CA,37.3685,-122.0966,30089
Ballwin,MO,38.5951,-90.55,30082
Atascadero,CA,35.4827,-120.6858,30075
North Royalton,OH,41.3138,-81.7452,30068
Somerset,KY,37.0815,-84.6091,30053
Seguin,TX,29.5889,-97.9671,29992
Fortuna Foothills,AZ,32.6616,-114.3973,29955
Milford Mill,MD,39.3444,-76.7668,29926
Pasadena,MD,39.1552,-76.5537,29918
Stockbridge,GA,33.5253,-84.2294,29904
East Liverpool,OH,40.6333,-80.5677,29898
Rahway,NJ,40.6077,-74.2807,29895
Madison Heights,MI,42.5073,-83.1034,29886
Williston,ND,48.1814,-103.6364,29844
Bay Shore,NY,40.7317,-73.2505,29799
Eagle,ID,43.7223,-116.3862,29796
Westchester,FL,25.7474,-80.3358,29778
Maryville,TN,35.7468,-83.9789,29742
Walnut,CA,34.0334,-117.8593,29685
Suisun City,CA,38.2473,-122.009,29663
Garden City,KS,37.9754,-100.8529,29659
Texarkana,AR,33.4361,-93.996,29657
Kent,OH,41.149,-81.361,29646
West Falls Church,VA,38.8648,-77.1878,29623
North Chicago,IL,42.3172,-87.8596,29615
Greenville,MS,33.385,-91.0514,29613
Duluth,GA,34.0053,-84.1492,29609
Aberdeen,WA,46.9757,-123.8094,29609
Winona,MN,44.0505,-91.6684,29601
O'Fallon,IL,38.5976,-89.9155,29583
Drexel Heights,AZ,32.1457,-111.0478,29568
Ukiah,CA,39.1463,-123.2105,29561
Atwater,CA,37.3543,-120.5981,29559
Golden Gate,FL,26.1844,-81.7031,29552
Sanford,ME,43.4244,-70.7573,29535
Highland Park,IL,42.1823,-87.8105,29515
Westfield,NJ,40.6515,-74.3433,29512
Hermiston,OR,45.8323,-119.2858,29512
Oak Park,MI,42.4649,-83.1824,29431
Central,LA,30.5593,-91.0369,29357
East Lake-Orient Park,FL,27.9971,-82.3653,29346
Chicago Heights,IL,41.5101,-87.6345,29322
East Palo Alto,CA,37.4671,-122.1352,29314
Newberg,OR,45.3075,-122.9601,29225
Lewes,DE,38.7777,-75.1448,29187
North Attleborough,MA,41.9699,-71.3345,29180
Washington,UT,37.1304,-113.4877,29174
Port Chester,NY,41.0052,-73.668,29163
Oak Ridge,TN,35.9639,-84.2938,29156
Crofton,MD,39.0144,-76.68,29136
Athens,OH,39.3269,-82.0988,29122
Laplace,LA,30.0731,-90.4758,29108
SeaTac,WA,47.4444,-122.2986,29044
Raytown,MO,38.9944,-94.4641,28991
Paragould,AR,36.0555,-90.5149,28986
Graham,WA,47.0407,-122.2756,28976
Southgate,MI,42.2047,-83.2057,28959
Harrison,NY,41.0233,-73.7192,28943
Niles,IL,42.0278,-87.8099,28938
Fernandina Beach,FL,30.6579,-81.4504,28931
Big Spring,TX,32.2387,-101.4802,28913
Bella Vista,AR,36.4667,-94.2707,28872
Milton,PA,41.009,-76.8507,28851
Morrisville,NC,35.8367,-78.8348,28846
Greenville,TX,33.1116,-96.1098,28827
Casselberry,FL,28.6625,-81.3218,28757
Plattsburgh,NY,44.6951,-73.4563,28740
Wasco,CA,35.5938,-119.3671,28710
South Laurel,MD,39.0603,-76.8456,28683
Fleming Island,FL,30.0988,-81.7124,28676
Belle Glade,FL,26.692,-80.6672,28665
Lake in the Hills,IL,42.1913,-88.3476,28634
Agawam,MA,42.0657,-72.6526,28613
Shirley,NY,40.7949,-72.8743,28583
Burton,MI,42.9974,-83.6175,28574
Geneva,NY,42.8644,-76.9827,28563
Schererville,IN,41.486,-87.444,28527
Independence,KY,38.951,-84.5492,28521
West Springfield,MA,42.1253,-72.6503,28517
Austintown,OH,41.0932,-80.7405,28488
Burlington,IA,40.8072,-91.1247,28474
Shamokin,PA,40.7883,-76.555,28457
New Iberia,LA,30.0049,-91.8202,28454
Northampton,MA,42.3266,-72.6745,28451
Englewood,NJ,40.8917,-73.9736,28402
Vineyard,CA,38.4744,-121.319,28386
Zionsville,IN,39.9897,-86.3182,28357
Short Pump,VA,37.6549,-77.6201,28328
Burbank,IL,41.7444,-87.7686,28289
Lumberton,NC,34.6312,-79.0186,28279
Perry Hall,MD,39.4067,-76.4781,28266
Aberdeen,SD,45.4646,-98.468,28257
Benicia,CA,38.0725,-122.1525,28240
Oakleaf Plantation,FL,30.1689,-81.8337,28237
Jacksonville,AR,34.8807,-92.1302,28235
Winchester,NV,36.1368,-115.1299,28231
Rockledge,FL,28.3201,-80.732,28227
Henderson,KY,37.8397,-87.5798,28207
Monterey,CA,36.5922,-121.8807,28178
Converse,TX,29.5091,-98.3084,28171
Granite City,IL,38.7292,-90.1266,28158
Yukon,OK,35.5201,-97.7639,28084
Sonora,CA,37.9819,-120.3828,28035
Melrose,MA,42.4556,-71.059,28016
Mehlville,MO,38.5018,-90.3149,27971
Wisconsin Rapids,WI,44.3927,-89.8265,27966
Galt,CA,38.2693,-121.3,27954
Hutto,TX,30.5373,-97.5516,27947
Bixby,OK,35.9454,-95.8773,27944
Hobart,IN,41.5139,-87.2729,27939
Drexel Hill,PA,39.9495,-75.3039,27939
Oakdale,MN,44.9876,-92.9641,27933
Sunbury,PA,40.8617,-76.7874,27921
Summerlin South,NV,36.1242,-115.3324,27908
New Smyrna Beach,FL,29.0249,-80.9651,27843
Tualatin,OR,45.3772,-122.7746,27837
Forest Hills,MI,42.9577,-85.4895,27830
Fridley,MN,45.0841,-93.2595,27826
East Chicago,IN,41.6484,-87.4536,27817
Kirkwood,MO,38.5788,-90.4203,27807
Sanger,CA,36.699,-119.5575,27777
Morgan City,LA,29.7041,-91.192,27728
Ramsey,MN,45.2617,-93.4494,27721
Ruston,LA,32.5329,-92.6363,27717
Jeffersontown,KY,38.2048,-85.5701,27715
Glen Ellyn,IL,41.8667,-88.0629,27714
Isla Vista,CA,34.4144,-119.8581,27707
Canon City,CO,38.443,-105.2203,27676
Monticello,MN,45.298,-93.7984,27665
Ashtabula,OH,41.8806,-80.7984,27645
Temescal Valley,CA,33.7581,-117.4677,27630
Bridgewater,MA,41.9728,-70.9749,27619
Mint Hill,NC,35.1782,-80.6533,27617
Mililani Town,HI,21.4465,-158.0147,27562
Statesville,NC,35.7842,-80.8714,27528
Gloversville,NY,43.0491,-74.3465,27512
Gladstone,MO,39.2133,-94.5593,27489
Deer Park,NY,40.7623,-73.3219,27479
Fremont,NE,41.4396,-96.4879,27456
Garfield Heights,OH,41.4199,-81.6038,27448
Imperial Beach,CA,32.5689,-117.1184,27440
Seneca,SC,34.6815,-82.9609,27439
Florence,AZ,33.059,-111.4208,27422
Bayonet Point,FL,28.3254,-82.6834,27418
Lansing,IL,41.5648,-87.5462,27402
Millville,NJ,39.3903,-75.0561,27391
Monroeville,PA,40.4262,-79.7605,27380
St. Helens,OR,45.8571,-122.8164,27353
Bergenfield,NJ,40.9236,-73.9983,27327
Ladera Ranch,CA,33.5491,-117.6416,27277
Horn Lake,MS,34.9512,-90.0501,27272
Prior Lake,MN,44.7251,-93.4409,27241
Huntley,IL,42.1599,-88.433,27228
Maple Valley,WA,47.3659,-122.0368,27202
Easton,PA,40.6858,-75.2209,27189
Oak Forest,IL,41.6054,-87.7527,27173
Glen Cove,NY,40.8709,-73.6287,27166
Indiana,PA,40.622,-79.1552,27142
Shoreview,MN,45.0842,-93.1358,27130
Windsor,CA,38.5417,-122.8086,27128
Sterling,IL,41.7995,-89.6956,27127
Dodge City,KS,37.761,-100.0183,27104
Colleyville,TX,32.8913,-97.1486,27091
Wilmette,IL,42.0771,-87.7282,27089
Plum,PA,40.5024,-79.7496,27087
Mount Pleasant,WI,42.7129,-87.8875,27082
McHenry,IL,42.3388,-88.2931,27061
Waterville,ME,44.5441,-69.6624,27054
Norfolk,NE,42.0327,-97.4208,27032
Shaker Heights,OH,41.4744,-81.5496,27027
Citrus Park,FL,28.073,-82.5628,27026
Reisterstown,MD,39.4552,-76.8144,27007
Erie,CO,40.0403,-105.0398,27003
Brownsburg,IN,39.833,-86.3824,27001
Chaska,MN,44.8164,-93.6092,26989
Ilchester,MD,39.2187,-76.7684,26974
Shelby,NC,35.2904,-81.5451,26973
Maywood,CA,33.9885,-118.1877,26973
Maryland Heights,MO,38.7189,-90.4749,26956
Magna,UT,40.7634,-112.1599,26949
Xenia,OH,39.6828,-83.9414,26947
Belmont,CA,37.5154,-122.2955,26941
Allen Park,MI,42.2595,-83.2107,26940
Mason City,IA,43.1487,-93.1998,26931
New Lenox,IL,41.5097,-87.97,26926
Hanahan,SC,32.9302,-80.0027,26917
Kinston,NC,35.2748,-77.5936,26889
Searcy,AR,35.2418,-91.7351,26889
New London,CT,41.3502,-72.1023,26858
West Islip,NY,40.7097,-73.2971,26844
West Chicago,IL,41.896,-88.2253,26816
Kiryas Joel,NY,41.3406,-74.166,26813
Lemon Grove,CA,32.7331,-117.0344,26811
Lindenhurst,NY,40.6858,-73.371,26801
McDonough,GA,33.4399,-84.1509,26768
West Linn,OR,45.3669,-122.6399,26736
Cortland,NY,42.6004,-76.1784,26729
Lemoore,CA,36.2949,-119.7983,26725
Alvin,TX,29.3871,-95.2933,26723
Waynesboro,PA,39.7525,-77.5822,26694
Marshalltown,IA,42.0341,-92.9067,26666
Lebanon,NH,43.6353,-72.2531,26666
West Whittier-Los Nietos,CA,33.9759,-118.0689,26654
Leisure City,FL,25.4937,-80.4369,26652
Thomasville,NC,35.8813,-80.0807,26649
Temple Terrace,FL,28.0437,-82.3774,26639
Lafayette,CA,37.8919,-122.1189,26638
University Park,FL,25.7469,-80.3684,26620
Norco,CA,33.9252,-117.5499,26604
Immokalee,FL,26.4253,-81.4251,26597
Vernon Hills,IL,42.234,-87.9608,26521
Pearl,MS,32.273,-90.0918,26510
Bethany,OR,45.5613,-122.8369,26501
Marquette,MI,46.544,-87.4082,26491
Sedalia,MO,38.7042,-93.2351,26473
Bessemer,AL,33.3709,-86.9713,26472
Plainview,NY,40.7832,-73.4732,26453
Batavia,IL,41.8479,-88.311,26420
Garden City,MI,42.3244,-83.3412,26408
Chanhassen,MN,44.8544,-93.5621,26389
Cabot,AR,34.9768,-92.0274,26352
Vicksburg,MS,32.3173,-90.8868,26340
Brawley,CA,32.9783,-115.5287,26309
Neenah,WI,44.167,-88.4764,26300
Snoqualmie,WA,47.5293,-121.8412,26289
Troy,OH,40.0436,-84.2191,26281
Hercules,CA,38.0064,-122.2564,26276
Lake City,FL,30.1901,-82.647,26271
Paramus,NJ,40.9455,-74.0712,26264
Okeechobee,FL,27.2414,-80.8298,26256
Soledad,CA,36.4432,-121.3426,26207
Muscatine,IA,41.4196,-91.068,26168
Boone,NC,36.2111,-81.6668,26146
Moscow,ID,46.7307,-116.9986,26145
Cliffside Park,NJ,40.8221,-73.988,26133
Sebastian,FL,27.7882,-80.4813,26118
Northport,AL,33.2589,-87.5984,26115
Natchez,MS,31.5437,-91.3867,26095
Winchester,KY,38.0017,-84.1907,26083
Twentynine Palms,CA,34.1478,-116.0659,26073
Holt,MI,42.6416,-84.5307,26065
East St. Louis,IL,38.6156,-90.1304,26047
Sachse,TX,32.9726,-96.5793,26046
Paris,TX,33.6688,-95.546,26010
Haines City,FL,28.11,-81.6157,26009
Cave Spring,VA,37.2254,-80.0073,26001
Superior,WI,46.6941,-92.0823,25977
West Odessa,TX,31.8388,-102.4996,25962
Medina,OH,41.1358,-81.8694,25956
Conway,SC,33.8399,-79.0424,25956
Barberton,OH,41.0094,-81.6038,25953
Espanola,NM,36.0041,-106.0669,25952
Dix Hills,NY,40.8035,-73.337,25925
Rock Springs,WY,41.5951,-109.2238,25913
Mercer Island,WA,47.5661,-122.232,25894
Heber,UT,40.5068,-111.3984,25877
White Bear Lake,MN,45.0657,-93.015,25875
Laurel,MS,31.6956,-89.1448,25844
Holbrook,NY,40.7944,-73.0707,25824
Bay Point,CA,38.0329,-121.9614,25808
Woodstock,IL,42.3096,-88.4352,25786
Lochearn,MD,39.346,-76.7307,25771
Green,OH,40.9483,-81.4757,25752
Cloverleaf,TX,29.7882,-95.1724,25718
Owatonna,MN,44.0914,-93.2304,25704
Decatur,GA,33.7711,-84.2968,25696
Pooler,GA,32.1043,-81.2568,25694
Madison,MS,32.4738,-90.13,25661
Lancaster,SC,34.7247,-80.7801,25649
Ewa Gentry,HI,21.3344,-158.0262,25641
Laurel,MD,39.095,-76.8622,25631
Austin,MN,43.6718,-92.9783,25626
Lockport,IL,41.5904,-88.0292,25615
Franklin,IN,39.4938,-86.0546,25608
South Salt Lake,UT,40.7056,-111.8986,25582
Tarpon Springs,FL,28.1493,-82.7623,25577
Edgewood,MD,39.421,-76.2968,25574
San Lorenzo,CA,37.6737,-122.1349,25569
Bluffton,SC,32.2135,-80.9316,25557
Sevierville,TN,35.8873,-83.5677,25557
Forest Grove,OR,45.5244,-123.1101,25553
Sun City West,AZ,33.6693,-112.3575,25544
South Portland,ME,43.631,-70.2895,25532
Ruskin,FL,27.7065,-82.4209,25530
Denison,TX,33.7672,-96.5807,25529
El Cerrito,CA,37.9197,-122.3025,25508
Keystone,FL,28.1312,-82.5999,25493
Coral Terrace,FL,25.7464,-80.3049,25387
Claremore,OK,36.3143,-95.6099,25384
Homewood,AL,33.4617,-86.8092,25377
Farmington,UT,40.9846,-111.9065,25339
Columbine,CO,39.5879,-105.0694,25332
South Pasadena,CA,34.1103,-118.1573,25329
Canyon Lake,TX,29.8761,-98.2611,25325
Kingsville,TX,27.5094,-97.8611,25315
Forest City,NC,35.3338,-81.8702,25311
Salem,VA,37.2864,-80.0555,25301
Bainbridge Island,WA,47.6439,-122.5434,25298
Caledonia,WI,42.7986,-87.8762,25277
Champlin,MN,45.1702,-93.3903,25268
Edwardsville,IL,38.7923,-89.9877,25233
South Bradenton,FL,27.4612,-82.5821,25227
Fairland,MD,39.0804,-76.9527,25220
Palm Springs,FL,26.6349,-80.0968,25216
Elk River,MN,45.3314,-93.567,25213
Rosemount,MN,44.7465,-93.0662,25207
Fountain Hills,AZ,33.6073,-111.7398,25200
Belvidere,IL,42.2544,-88.8649,25143
Riverside,OH,39.7836,-84.1219,25133
Middle River,MD,39.3345,-76.4318,25129
Muskego,WI,42.886,-88.1291,25127
Levittown,PR,18.4454,-66.1759,25121
Hazelwood,MO,38.7931,-90.3899,25117
Scottsbluff,NE,41.8684,-103.6616,25114
Fresno,TX,29.5358,-95.4696,25072
Ridgewood,NJ,40.9822,-74.1128,25056
Yucca Valley,CA,34.1234,-116.4216,25042
Branson,MO,36.651,-93.2635,25033
Balch Springs,TX,32.7194,-96.6151,25007
University Park,TX,32.8506,-96.7937,24985
Timberwood Park,TX,29.6994,-98.4838,24978
De Pere,WI,44.4309,-88.0785,24970
Socastee,SC,33.6871,-79.0086,24964
Terrytown,LA,29.9014,-90.0279,24953
Fajardo,PR,18.333,-65.6592,24950
Marysville,OH,40.2278,-83.3595,24949
Derby,KS,37.5571,-97.2552,24943
Wilsonville,OR,45.3107,-122.7705,24918
Clayton,NC,35.6591,-78.4499,24887
Brookings,SD,44.3022,-96.7859,24887
Riverbank,CA,37.7268,-120.9402,24881
North Laurel,MD,39.1286,-76.8476,24873
Walker,MI,42.9853,-85.7446,24869
Wyandotte,MI,42.2113,-83.1558,24859
Grandview,MO,38.8802,-94.5227,24856
Forest Lake,MN,45.2536,-92.9583,24853
Chesapeake Beach,MD,38.6881,-76.5448,24845
Palm City,FL,27.1736,-80.2861,24840
Hudson,WI,44.9637,-92.7316,24832
Clarksburg,MD,39.2314,-77.2617,24767
South Elgin,IL,41.9906,-88.3134,24755
Auburn Hills,MI,42.6735,-83.2447,24748
Baldwin,NY,40.6634,-73.6104,24727
North Tustin,CA,33.7644,-117.7945,24705
Ontario,OR,44.0259,-116.9759,24704
Melrose Park,IL,41.9029,-87.8642,24703
Ardmore,OK,34.1944,-97.1253,24698
Hastings,NE,40.5963,-98.3914,24692
Burlington,WI,42.6746,-88.2723,24691
Norton Shores,MI,43.1621,-86.2519,24664
Kernersville,NC,36.1066,-80.0844,24660
Sugar Hill,GA,34.1081,-84.056,24617
Herndon,VA,38.9699,-77.3867,24601
Emporia,KS,38.4028,-96.1924,24598
Prosper,TX,33.2394,-96.8087,24579
Rockville Centre,NY,40.6644,-73.6383,24550
Palmetto Bay,FL,25.622,-80.3221,24523
Suitland,MD,38.8492,-76.9225,24522
Somerset,NJ,40.5083,-74.501,24509
Avon Lake,OH,41.4945,-82.016,24504
Lathrop,CA,37.809,-121.3131,24483
Loma Linda,CA,34.0451,-117.2498,24482
Watauga,TX,32.8718,-97.2515,24481
Homer Glen,IL,41.6044,-87.9497,24472
Tifton,GA,31.4625,-83.5205,24466
Dinuba,CA,36.5453,-119.3987,24461
Bloomingdale,FL,27.8784,-82.2624,24446
Westmont,IL,41.7948,-87.9742,24443
Clinton,MS,32.354,-90.3403,24440
Ashland,CA,37.6942,-122.1159,24430
Opelousas,LA,30.528,-92.0851,24423
Camas,WA,45.6005,-122.4305,24418
Harvey,IL,41.6076,-87.6521,24408
Medford,NY,40.822,-72.9859,24406
Trotwood,OH,39.7927,-84.3165,24403
West Memphis,AR,35.1531,-90.1995,24402
Collinsville,IL,38.6769,-90.0059,24395
Mequon,WI,43.2352,-87.9838,24382
Ellensburg,WA,46.9994,-120.5477,24377
Ottumwa,IA,41.0196,-92.4186,24368
Chantilly,VA,38.8868,-77.4453,24368
Shelbyville,KY,38.2069,-85.2293,24351
Woodlawn,VA,38.7332,-77.1149,24351
Lodi,NJ,40.8784,-74.0814,24347
Orchards,WA,45.689,-122.5306,24335
Newport,RI,41.4803,-71.3205,24334
San Fernando,CA,34.2886,-118.4363,24322
Saginaw,TX,32.8657,-97.3654,24310
Peekskill,NY,41.2883,-73.9227,24295
Port Angeles,WA,48.1142,-123.4565,24293
Mill Creek East,WA,47.836,-122.1877,24291
Brandon,MS,32.2778,-89.9896,24289
Sun City Center,FL,27.7149,-82.3569,24286
Inkster,MI,42.2935,-83.3148,24284
Thomasville,GA,30.8394,-83.9782,24275
Ponca City,OK,36.7235,-97.0679,24274
Catano,PR,18.4415,-66.1388,24271
Tysons,VA,38.9215,-77.2273,24261
West Melbourne,FL,28.0693,-80.6734,24259
Faribault,MN,44.2985,-93.2786,24250
San Benito,TX,26.1298,-97.644,24243
Fort Washington,MD,38.7339,-77.0069,24237
Lincolnton,NC,35.4747,-81.2385,24229
West Springfield,VA,38.7771,-77.2268,24223
Simpsonville,SC,34.7287,-82.2573,24221
Waverly,MI,42.7401,-84.6353,24201
Bailey's Crossroads,VA,38.8477,-77.1305,24180
Okemos,MI,42.7057,-84.4135,24141
Ridgeland,MS,32.4236,-90.1481,24104
Elmwood Park,IL,41.9225,-87.8163,24098
North Platte,NE,41.1266,-100.764,24098
Charles Town,WV,39.2745,-77.8632,24094
Freeport,IL,42.2893,-89.6347,24092
Waukee,IA,41.5984,-93.8872,24089
South Plainfield,NJ,40.5748,-74.4153,24052
Wadsworth,OH,41.0279,-81.7324,24046
Tumwater,WA,46.989,-122.9173,24024
Fairfax,VA,38.8531,-77.2998,24019
Candler-McAfee,GA,33.7267,-84.2723,24011
Oak Ridge,FL,28.4727,-81.4169,24004
Venice,FL,27.1163,-82.4135,23985
Wright,FL,30.4445,-86.6419,23965
Lincolnia,VA,38.8158,-77.1543,23933
Westchase,FL,28.0597,-82.611,23923
Edgewater,FL,28.9594,-80.9407,23918
North Potomac,MD,39.0955,-77.2372,23914
Pelham,AL,33.3114,-86.7573,23911
Corsicana,TX,32.0824,-96.4665,23906
Seal Beach,CA,33.7542,-118.0714,23896
Fort Dodge,IA,42.5098,-94.1751,23888
Dunkirk,NY,42.4803,-79.3323,23874
Calabasas,CA,34.1375,-118.6689,23853
Chalmette,LA,29.9437,-89.9659,23851
North Augusta,SC,33.5214,-81.9547,23845
Palm River-Clair Mel,FL,27.9239,-82.3791,23844
Mount Pocono,PA,41.1225,-75.3582,23820
Farragut,TN,35.8731,-84.1822,23778
Jenks,OK,35.9981,-95.9737,23767
Palatka,FL,29.6493,-81.6705,23738
Coronado,CA,32.664,-117.16,23731
Valinda,CA,34.0401,-117.93,23705
Centerville,OH,39.6339,-84.1449,23703
Van Buren,AR,35.448,-94.3528,23683
Greeneville,TN,36.168,-82.8197,23683
Waycross,GA,31.2108,-82.3579,23671
Half Moon Bay,CA,37.4688,-122.4383,23653
Belton,MO,38.8193,-94.5334,23642
Jacksonville Beach,FL,30.2782,-81.4045,23628
North Lynnwood,WA,47.8533,-122.2762,23620
Ilion,NY,43.0114,-75.0396,23608
Rosemont,CA,38.5477,-121.3553,23602
Seymour,IN,38.9476,-85.891,23598
Oakdale,CA,37.7616,-120.847,23596
Madisonville,KY,37.3408,-87.5034,23580
Romulus,MI,42.2237,-83.366,23573
Cudahy,CA,33.9631,-118.183,23569
Copiague,NY,40.6728,-73.3932,23561
Winter Gardens,CA,32.8376,-116.9268,23545
Leland,NC,34.2044,-78.0277,23544
Rolling Meadows,IL,42.0747,-88.0252,23532
Wekiwa Springs,FL,28.6984,-81.4251,23512
Northdale,FL,28.1058,-82.5263,23510
Fort Hood,TX,31.1345,-97.7797,23508
Benbrook,TX,32.6787,-97.4638,23502
Zion,IL,42.4598,-87.8509,23487
Watertown,WI,43.1893,-88.7285,23479
Montrose,CO,38.469,-107.859,23478
Hialeah Gardens,FL,25.8878,-80.3569,23474
Columbus,NE,41.4368,-97.3563,23468
Plainview,TX,34.1911,-101.7234,23424
Auburn,ME,44.085,-70.2492,23414
Carteret,NJ,40.5848,-74.2284,23408
Arnold,MD,39.0437,-76.4974,23406
Avon,OH,41.4485,-82.0187,23399
West Puente Valley,CA,34.0512,-117.9681,23382
Loves Park,IL,42.3364,-88.9975,23371
Vero Beach South,FL,27.6164,-80.413,23333
Lisle,IL,41.7918,-88.0888,23270
Greenbelt,MD,38.9953,-76.8885,23224
Granite Bay,CA,38.7601,-121.1714,23183
Maywood,IL,41.8798,-87.8442,23158
Dickinson,ND,46.8917,-102.7924,23133
Oxford,OH,39.5061,-84.7434,23113
Kenmore,WA,47.7516,-122.2489,23097
Allison Park,PA,40.573,-79.9603,23092
Farmington,MN,44.6573,-93.1688,23091
Monsey,NY,41.1181,-74.0681,23055
Hastings,MN,44.7318,-92.8538,23047
Rockingham,NC,34.9386,-79.7608,23016
Greenfield,IN,39.7936,-85.7737,23006
Auburn,IN,41.3666,-85.0559,22994
Frederickson,WA,47.0914,-122.3594,22994
Willoughby,OH,41.646,-81.4084,22977
Mustang,OK,35.3917,-97.7246,22959
Patterson,CA,37.4758,-121.1535,22930
Gallup,NM,35.5183,-108.7423,22917
Radcliff,KY,37.8206,-85.9366,22914
West Rancho Dominguez,CA,33.9057,-118.2682,22901
Blue Island,IL,41.6578,-87.6812,22899
Crystal,MN,45.0377,-93.3599,22899
Belton,TX,31.0525,-97.479,22885
Pace,FL,30.6187,-87.1667,22860
Marshall,TX,32.537,-94.3515,22831
Laguna Beach,CA,33.5448,-117.7612,22827
Webster Groves,MO,38.5866,-90.3544,22819
Acworth,GA,34.0566,-84.6715,22818
Griffin,GA,33.2418,-84.2747,22813
Willowbrook,CA,33.9199,-118.2362,22811
Morton Grove,IL,42.0423,-87.789,22796
Keene,NH,42.9494,-72.2997,22786
Marina,CA,36.6812,-121.7895,22781
Solon,OH,41.3864,-81.4401,22779
New Brighton,MN,45.0658,-93.206,22753
Mandan,ND,46.829,-100.887,22752
Pittsburg,KS,37.4129,-94.6984,22711
Elizabeth City,NC,36.2943,-76.2361,22711
Harriman,TN,35.9307,-84.5602,22708
Ives Estates,FL,25.9632,-80.183,22707
Greenfield,MA,42.614,-72.5985,22703
Fairhope,AL,30.5217,-87.8815,22677
Cottage Lake,WA,47.7466,-122.0755,22677
Machesney Park,IL,42.3666,-89.0266,22677
Braidwood,IL,41.2696,-88.2235,22670
Hurricane,UT,37.1487,-113.3517,22666
Trussville,AL,33.6404,-86.5819,22635
Waynesboro,VA,38.0674,-78.9014,22630
Johnston,IA,41.6857,-93.7173,22582
Corcoran,CA,36.0839,-119.561,22581
Meadville,PA,41.6476,-80.1468,22580
Landover,MD,38.9241,-76.8875,22553
Happy Valley,OR,45.4362,-122.5077,22553
East Peoria,IL,40.6734,-89.5419,22546
Hopewell,VA,37.2915,-77.2985,22529
Fort Walton Beach,FL,30.4249,-86.6194,22521
Nixa,MO,37.0453,-93.296,22515
Clinton,UT,41.1395,-112.0656,22499
Munster,IN,41.5469,-87.504,22476
Christiansburg,VA,37.1411,-80.4028,22473
Anthem,AZ,33.856,-112.1168,22468
Roselle,IL,41.9807,-88.0861,22463
Garden City,NY,40.7266,-73.6447,22454
The Crossings,FL,25.6708,-80.4018,22441
Warrensburg,MO,38.7627,-93.726,22410
Kihei,HI,20.7653,-156.4454,22402
Union City,GA,33.5941,-84.5629,22399
Millbrae,CA,37.5994,-122.4023,22394
Florida Ridge,FL,27.5805,-80.3848,22372
Silver Firs,WA,47.8635,-122.1497,22358
Dolton,IL,41.6284,-87.5979,22348
Duncan,OK,34.5424,-97.919,22344
Brent,FL,30.4729,-87.2496,22337
Northfield,MN,44.455,-93.1698,22325
Highland,IN,41.5485,-87.4587,22316
Sequim,WA,48.0746,-123.0944,22304
Prairie Village,KS,38.9874,-94.6361,22295
Kuna,ID,43.4869,-116.3986,22292
Coralville,IA,41.699,-91.5967,22290
Fort Mill,SC,35.0062,-80.9388,22284
Rose Hill,VA,38.7872,-77.1085,22252
Hudson,OH,41.2399,-81.4408,22237
Lutz,FL,28.1396,-82.4467,22235
Taylors,SC,34.9157,-82.3124,22230
Roanoke Rapids,NC,36.4452,-77.6491,22225
Vega Baja,PR,18.441,-66.3993,22211
Raymore,MO,38.8029,-94.4583,22194
Ensley,FL,30.5261,-87.2735,22194
Fremont,OH,41.3536,-83.1148,22191
Mukwonago,WI,42.8566,-88.3269,22185
Watertown,SD,44.9094,-97.1531,22174
East Patchogue,NY,40.7704,-72.9817,22172
Lebanon,OR,44.5317,-122.9071,22160
Pickerington,OH,39.889,-82.7678,22158
Lexington,SC,33.989,-81.2202,22157
Arvin,CA,35.1944,-118.8306,22155
Lino Lakes,MN,45.1679,-93.083,22119
Augusta,ME,44.3341,-69.7319,22116
Milford,DE,38.9091,-75.4224,22102
Shelbyville,TN,35.4987,-86.4516,22101
Corinth,TX,33.1435,-97.0681,22099
Naples,FL,26.1504,-81.7936,22088
West Carson,CA,33.8229,-118.2931,22079
Maple Heights,OH,41.4094,-81.5625,22078
Lealman,FL,27.8197,-82.6847,22034
Chester,VA,37.3531,-77.4342,22032
Gardner,KS,38.8158,-94.93,22031
Union Hill-Novelty Hill,WA,47.6788,-122.0284,21992
Hayesville,OR,44.9794,-122.9739,21979
Siloam Springs,AR,36.1844,-94.5318,21975
Piqua,OH,40.1505,-84.2441,21936
Fish Hawk,FL,27.8511,-82.2164,21929
Port Hueneme,CA,34.1617,-119.2036,21926
Lakeside,CA,32.856,-116.904,21917
Summit,NJ,40.7154,-74.3647,21897
Secaucus,NJ,40.781,-74.0659,21893
Golden Valley,MN,44.9901,-93.3591,21886
Jasmine Estates,FL,28.293,-82.6907,21865
Mount Vernon,OH,40.3854,-82.4734,21864
Bloomington,CA,34.0601,-117.4013,21847
Camp Springs,MD,38.8052,-76.9198,21841
Lennox,CA,33.938,-118.3586,21818
Roselle,NJ,40.6527,-74.2599,21811
Geneva,IL,41.8832,-88.3242,21809
Sunny Isles Beach,FL,25.9385,-80.1246,21804
Rancho San Diego,CA,32.7624,-116.9197,21799
Massapequa,NY,40.6676,-73.4706,21784
Bloomingdale,IL,41.9497,-88.0895,21779
Shafter,CA,35.4794,-119.2013,21734
Eastmont,WA,47.8968,-122.1817,21733
Katy,TX,29.7904,-95.8353,21729
Brownwood,TX,31.7127,-98.9767,21729
Del City,OK,35.4483,-97.4408,21712
Jacksonville,IL,39.7292,-90.2318,21685
North Bay Shore,NY,40.7601,-73.2618,21679
Silverdale,WA,47.6663,-122.6828,21677
Kapolei,HI,21.3403,-158.0665,21674
Allendale,MI,42.9851,-85.9509,21672
Darien,IL,41.7447,-87.9823,21628
Perrysburg,OH,41.5377,-83.6413,21626
Lewistown,PA,40.5964,-77.573,21614
Hamtramck,MI,42.3954,-83.056,21599
La Porte,IN,41.6077,-86.7136,21569
Clarksville,IN,38.3221,-85.7673,21558
New Castle,IN,39.919,-85.3697,21555
Bellview,FL,30.462,-87.312,21515
Biddeford,ME,43.4674,-70.4512,21504
McNair,VA,38.9513,-77.4116,21485
Villa Park,IL,41.8864,-87.9779,21483
Fernley,NV,39.5611,-119.1926,21476
Elkridge,MD,39.1941,-76.7427,21458
Mukilteo,WA,47.9096,-122.3035,21441
Atoka,TN,35.4239,-89.7861,21428
Prichard,AL,30.7735,-88.1301,21428
Hays,KS,38.8815,-99.3218,21421
Birmingham,MI,42.5447,-83.2166,21389
Easley,SC,34.819,-82.5828,21364
Brambleton,VA,38.9802,-77.5323,21358
Mountlake Terrace,WA,47.7921,-122.3076,21338
Ramona,CA,33.0474,-116.8767,21323
Owosso,MI,42.9955,-84.176,21315
King of Prussia,PA,40.0963,-75.382,21313
DeBary,FL,28.8815,-81.324,21305
Eustis,FL,28.856,-81.6781,21303
South Euclid,OH,41.5239,-81.5245,21297
South Holland,IL,41.5977,-87.6022,21296
Palm Valley,FL,30.2011,-81.3949,21292
North Plainfield,NJ,40.6209,-74.4386,21289
Ashland,OR,42.1905,-122.6992,21281
Sapulpa,OK,36.0089,-96.1006,21278
Duarte,CA,34.161,-117.9504,21271
Marietta,OH,39.4241,-81.4465,21267
Battle Ground,WA,45.7765,-122.5413,21252
Stephenville,TX,32.2148,-98.2205,21247
Amsterdam,NY,42.942,-74.1907,21241
Oxford,AL,33.5967,-85.8687,21225
Park Forest,IL,41.4817,-87.6868,21210
Evans,CO,40.366,-104.7389,21205
Alexandria,MN,45.8777,-95.3766,21204
Fort Atkinson,WI,42.9253,-88.8441,21196
Hazel Dell,WA,45.6797,-122.6553,21196
Carrboro,NC,35.926,-79.0878,21190
Bardstown,KY,37.8174,-85.4548,21184
East Ridge,TN,34.9973,-85.2284,21182
Elko,NV,40.8387,-115.7674,21179
Covington,WA,47.3668,-122.1044,21175
Gaffney,SC,35.0742,-81.6558,21169
Sun Valley,NV,39.6106,-119.7765,21159
Sidney,OH,40.2891,-84.1667,21148
Bonney Lake,WA,47.1791,-122.17,21148
Dickinson,TX,29.4546,-95.0583,21129
Martha Lake,WA,47.8479,-122.2327,21129
Bothell West,WA,47.8056,-122.2401,21115
Arnold,MO,38.4296,-90.3733,21091
Ballenger Creek,MD,39.3807,-77.4205,21080
Rolla,MO,37.9458,-91.7608,21059
West Pensacola,FL,30.4263,-87.2679,21056
Harvey,LA,29.8876,-90.0666,21054
Johnstown,CO,40.3499,-104.9481,21048
Cockeysville,MD,39.4793,-76.63,21038
Pleasant Prairie,WI,42.5266,-87.8895,21034
Shelbyville,IN,39.535,-85.7792,21028
Sweetwater,FL,25.7786,-80.376,20994
St. Andrews,SC,34.051,-81.1057,20990
Milwaukie,OR,45.4447,-122.6221,20990
Bryant,AR,34.6152,-92.4914,20968
Salmon Creek,WA,45.7099,-122.6632,20956
Kill Devil Hills,NC,36.0167,-75.6699,20951
North Salt Lake,UT,40.8439,-111.9187,20948
Apollo Beach,FL,27.7618,-82.4002,20947
Guayama,PR,17.9744,-66.1104,20913
Cornelia,GA,34.517,-83.531,20913
Suwanee,GA,34.0506,-84.0687,20907
New Hope,MN,45.0374,-93.3869,20907
Wade Hampton,SC,34.8821,-82.3336,20906
Green Valley,AZ,31.8436,-111.0174,20902
Mill Creek,WA,47.8631,-122.2037,20897
Universal City,TX,29.5521,-98.3074,20890
Montclair,VA,38.6111,-77.34,20881
Lorton,VA,38.6984,-77.2163,20871
Clemmons,NC,36.0319,-80.3861,20867
Rosamond,CA,34.8658,-118.2154,20851
Bear,DE,39.6188,-75.6804,20850
Dyersburg,TN,36.0465,-89.3777,20839
Oneida,NY,43.0769,-75.6621,20828
Hunters Creek,FL,28.3611,-81.4357,20817
Holiday,FL,28.1864,-82.7429,20816
Louisville,CO,39.9709,-105.1441,20816
Dixon,CA,38.4468,-121.8249,20803
Murray,KY,36.6146,-88.3206,20776
Golden,CO,39.7406,-105.2118,20767
Olean,NY,42.0819,-78.4321,20755
Clifton,CO,39.0763,-108.4606,20748
Grayslake,IL,42.3402,-88.0338,20725
North Bellmore,NY,40.6904,-73.539,20718
Palisades Park,NJ,40.8472,-73.9967,20715
South Milwaukee,WI,42.912,-87.8627,20696
Gardner,MA,42.5845,-71.9867,20683
Havelock,NC,34.9078,-76.8987,20677
Lake Ronkonkoma,NY,40.8308,-73.1112,20667
Lebanon,OH,39.4251,-84.2135,20659
East Moline,IL,41.5199,-90.3879,20645
Norwalk,OH,41.2443,-82.6088,20629
Yorkville,IL,41.6562,-88.4507,20613
Logansport,IN,40.7472,-86.3519,20608
Dublin,GA,32.5359,-82.928,20583
North Ogden,UT,41.3123,-111.9585,20582
South El Monte,CA,34.0493,-118.0484,20574
Lynn Haven,FL,30.2337,-85.637,20525
Ferguson,MO,38.749,-90.295,20525
Arlington,WA,48.1698,-122.1443,20523
Willmar,MN,45.122,-95.0569,20510
Alice,TX,27.7556,-98.0653,20510
Swansboro,NC,34.6958,-77.1368,20507
Murphy,TX,33.0186,-96.6105,20500
Culpeper,VA,38.4705,-78.0001,20485
Ozark,MO,37.0361,-93.2155,20482
American Canyon,CA,38.1796,-122.2583,20475
Papillion,NE,41.1516,-96.0679,20471
The Dalles,OR,45.6053,-121.1818,20442
Columbia Heights,MN,45.0484,-93.2472,20427
Barre,VT,44.1997,-72.5083,20421
Amherst Center,MA,42.3757,-72.5188,20409
Crest Hill,IL,41.5723,-88.1124,20376
Punta Gorda,FL,26.8933,-82.0516,20369
Neabsco,VA,38.6083,-77.2847,20364
Newton,KS,38.0368,-97.3451,20361
Poplar Bluff,MO,36.7632,-90.4136,20359
Ennis,TX,32.3255,-96.635,20357
Tukwila,WA,47.4749,-122.2727,20347
Prunedale,CA,36.8064,-121.6555,20327
Lomita,CA,33.7933,-118.3175,20320
Payson,UT,40.036,-111.7395,20303
Mountain Brook,AL,33.4871,-86.74,20297
Glassboro,NJ,39.7014,-75.1113,20288
Bayshore Gardens,FL,27.4345,-82.5794,20287
Ashland,OH,40.8668,-82.3156,20275
Shelton,WA,47.2186,-123.112,20264
Shenandoah,LA,30.4019,-91.002,20252
Cherry Hill,VA,38.5696,-77.2895,20241
Henderson,NC,36.3259,-78.4155,20238
Linda,CA,39.1241,-121.5421,20228
Agoura Hills,CA,34.151,-118.7608,20222
East Hemet,CA,33.7301,-116.941,20211
Libertyville,IL,42.287,-87.967,20205
Durango,CO,37.2659,-107.8782,20203
East Northport,NY,40.8792,-73.3232,20190
Howard,WI,44.5703,-88.092,20177
Monmouth,OR,44.8505,-123.2283,20172
Ypsilanti,MI,42.2437,-83.6205,20171
Mokena,IL,41.5327,-87.8779,20159
Pleasantville,NJ,39.39,-74.5169,20149
Affton,MO,38.5499,-90.3264,20148
Bartow,FL,27.8868,-81.8213,20147
Ashland,KY,38.4592,-82.6449,20146
Mead Valley,CA,33.8333,-117.2852,20145
Miamisburg,OH,39.6323,-84.2725,20143
Merrick,NY,40.6515,-73.5535,20130
Charleston,IL,39.4842,-88.1781,20117
Germantown,WI,43.2343,-88.1217,20116
Escanaba,MI,45.7477,-87.09,20094
Selden,NY,40.8699,-73.0462,20093
Bayou Cane,LA,29.6244,-90.751,20093
Mililani Mauka,HI,21.4756,-157.9947,20090
Snellville,GA,33.8563,-84.0038,20077
Sulphur,LA,30.2286,-93.3565,20065
Harrison,NJ,40.7431,-74.1531,20061
South St. Paul,MN,44.8876,-93.0411,20060
Oregon,OH,41.6528,-83.4322,20055
Middleton,WI,43.1065,-89.5058,20034
Ferndale,MI,42.4592,-83.1314,20033
West Chester,PA,39.9601,-75.6058,20029
Forest Park,GA,33.6209,-84.359,20020
La Canada Flintridge,CA,34.2097,-118.2002,20009
Hauppauge,NY,40.8217,-73.2119,20005
Safford,AZ,32.8317,-109.7005,19987
Rocky River,OH,41.4703,-81.8526,19986
South San Jose Hills,CA,34.0123,-117.9041,19977
Elmwood Park,NJ,40.905,-74.1201,19966
El Reno,OK,35.543,-97.966,19965
Saco,ME,43.539,-70.4624,19964
Fairwood,WA,47.4467,-122.143,19962
Greenwood,MS,33.5126,-90.1993,19961
West St. Paul,MN,44.9018,-93.0858,19961
Valley,AL,32.8088,-85.1809,19926
Orinda,CA,37.8808,-122.1791,19926
Helena,AL,33.2845,-86.8756,19925
Cullman,AL,34.1777,-86.8407,19920
Alamo,TX,26.1811,-98.1177,19910
Sand Springs,OK,36.1342,-96.1284,19905
Vernal,UT,40.4517,-109.5379,19893
Laurinburg,NC,34.7597,-79.4781,19889
Painesville,OH,41.724,-81.2536,19886
Sherwood,OR,45.3593,-122.8433,19879
Lake Zurich,IL,42.1955,-88.087,19877
West Hempstead,NY,40.6959,-73.6507,19864
Rosedale,MD,39.3266,-76.5084,19842
Ottawa,IL,41.3532,-88.8306,19839
Meadowbrook,VA,37.4301,-77.474,19811
Casa de Oro-Mount Helix,CA,32.764,-116.9687,19804
Lake Shore,MD,39.1029,-76.4876,19791
Parma Heights,OH,41.3865,-81.7637,19790
Old Jamestown,MO,38.8394,-90.2847,19777
Norwood,OH,39.1605,-84.4535,19776
Monroe,WA,47.8595,-121.9852,19776
Selma,AL,32.4166,-87.0336,19775
Makakilo,HI,21.3591,-158.0813,19775
Tahlequah,OK,35.9116,-94.9773,19773
Brockport,NY,43.2137,-77.9404,19764
Rockport,TX,28.029,-97.0722,19743
Mesquite,NV,36.8035,-114.1325,19726
Franconia,VA,38.7682,-77.1587,19720
Front Royal,VA,38.926,-78.1838,19719
West Mifflin,PA,40.3581,-79.9072,19699
Albany,CA,37.8898,-122.3018,19696
La Crescenta-Montrose,CA,34.2322,-118.2353,19689
Somerton,AZ,32.6009,-114.699,19684
Blythe,CA,33.622,-114.6188,19682
Horizon City,TX,31.6799,-106.1903,19642
Montgomery,IL,41.7237,-88.3631,19638
Stillwater,MN,45.0573,-92.8313,19627
Eloy,AZ,32.747,-111.5991,19625
Brigham City,UT,41.5034,-112.0454,19601
Murrysville,PA,40.4456,-79.6555,19590
Brainerd,MN,46.3553,-94.1982,19583
Rio Rico,AZ,31.4957,-110.9886,19581
Central Falls,RI,41.89,-71.3934,19568
Haslett,MI,42.7525,-84.402,19565
Tullahoma,TN,35.3721,-86.2173,19555
Baldwin,PA,40.369,-79.9668,19554
Anna,TX,33.347,-96.5503,19541
Danville,KY,37.6418,-84.7777,19529
Langley Park,MD,38.9897,-76.9808,19520
South Burlington,VT,44.4622,-73.2203,19509
North Liberty,IA,41.7438,-91.611,19501
Lake Butler,FL,28.4868,-81.5453,19499
Schofield Barracks,HI,21.4936,-158.0617,19499
Vincennes,IN,38.676,-87.5102,19498
Sienna Plantation,TX,29.4834,-95.5065,19486
Holtsville,NY,40.8124,-73.0447,19479
Abbeville,LA,29.975,-92.1265,19470
Bourbonnais,IL,41.183,-87.878,19462
Syosset,NY,40.8156,-73.502,19453
Matteson,IL,41.5095,-87.7468,19448
Lynbrook,NY,40.6579,-73.6742,19448
Lake Forest,IL,42.238,-87.8596,19446
Angleton,TX,29.1718,-95.4291,19431
Castaic,CA,34.4818,-118.6317,19400
Canby,OR,45.2653,-122.6866,19393
Wendell,NC,35.7823,-78.3962,19382
Frankfort,IL,41.4887,-87.8361,19373
Laconia,NH,43.5724,-71.4775,19371
Silverthorne,CO,39.656,-106.0867,19344
Altamont,OR,42.1981,-121.7249,19341
Sheridan,WY,44.7962,-106.9643,19320
Hermosa Beach,CA,33.8654,-118.3966,19320
Durant,OK,33.9957,-96.3938,19315
Sylvania,OH,41.71,-83.7091,19311
Corning,NY,42.147,-77.0561,19296
Arbutus,MD,39.2428,-76.6922,19292
White Oak,OH,39.2106,-84.6061,19271
Morristown,NJ,40.7966,-74.4772,19261
Pinole,CA,37.9931,-122.2834,19250
Erlanger,KY,39.0109,-84.5864,19246
Altoona,IA,41.6481,-93.4784,19221
Bethany,OK,35.5072,-97.6417,19221
Sherrelwood,CO,39.839,-105.0014,19208
Mineola,NY,40.7469,-73.6392,19207
Carlisle,PA,40.1999,-77.2042,19198
Stevenson Ranch,CA,34.3894,-118.5885,19179
Highland,UT,40.4275,-111.7955,19175
Liberal,KS,37.0466,-100.9295,19174
Cameron Park,CA,38.6737,-120.9872,19171
Pinecrest,FL,25.665,-80.3042,19155
Evergreen Park,IL,41.7213,-87.7013,19147
Tiffin,OH,41.1165,-83.1805,19130
Mount Airy,NC,36.5083,-80.6154,19119
Broadview Heights,OH,41.3195,-81.6782,19102
Westbrook,ME,43.6954,-70.3539,19074
Red Bluff,CA,40.1735,-122.2413,19039
Arcadia,FL,27.2213,-81.8587,19038
White Oak,MD,39.0433,-76.9906,19020
Fox Crossing,WI,44.2229,-88.4763,19012
McKeesport,PA,40.3419,-79.8439,19009
Bellaire,TX,29.704,-95.4622,18971
Troy,AL,31.8021,-85.9665,18957
Onalaska,WI,43.8881,-91.2074,18943
Lexington,NC,35.8017,-80.2682,18933
Springboro,OH,39.5612,-84.2348,18931
Whitehall,OH,39.9682,-82.8833,18926
Sartell,MN,45.6187,-94.2207,18926
Badger,AK,64.8006,-147.3877,18911
Five Corners,WA,45.6883,-122.5738,18908
McAlester,OK,34.9262,-95.7698,18896
La Follette,TN,36.3718,-84.1256,18884
Terrell,TX,32.7341,-96.2939,18869
Natchitoches,LA,31.7317,-93.0979,18859
Twinsburg,OH,41.322,-81.4451,18856
Central Point,OR,42.3765,-122.911,18848
Seminole,FL,27.8435,-82.7839,18838
Coldwater,MI,41.9465,-84.9989,18832
St. John,IN,41.4431,-87.47,18796
Point Pleasant,NJ,40.0772,-74.0702,18772
Grandview,WA,46.2444,-119.9091,18772
Marshfield,WI,44.6627,-90.1728,18764
Hawthorne,NJ,40.9579,-74.1581,18753
Cimarron Hills,CO,38.8597,-104.6995,18727
Alsip,IL,41.6701,-87.7368,18709
Avon,IN,39.7603,-86.3917,18706
Homewood,IL,41.5591,-87.661,18703
Port Isabel,TX,26.054,-97.2505,18686
Bellwood,IL,41.8829,-87.8762,18672
Marinette,WI,45.087,-87.6328,18671
Bay City,TX,28.9838,-95.9601,18661
North Valley Stream,NY,40.684,-73.7077,18661
Ansonia,CT,41.3443,-73.0689,18654
Deerfield,IL,42.1654,-87.8516,18646
Westminster,MD,39.5796,-77.0066,18640
Creve Coeur,MO,38.6621,-90.443,18622
Seabrook,MD,38.9802,-76.8502,18616
Berea,OH,41.3696,-81.8642,18609
Cocoa,FL,28.382,-80.7674,18603
Moultrie,GA,31.1591,-83.7708,18602
Avenel,NJ,40.5839,-74.272,18592
Forest Park,OH,39.2861,-84.5259,18583
Sudley,VA,38.7878,-77.4961,18575
Anacortes,WA,48.4878,-122.6292,18563
Winthrop,MA,42.3751,-70.9847,18544
Rancho Mirage,CA,33.7634,-116.4271,18528
Gibsonton,FL,27.826,-82.3761,18515
Lynden,WA,48.9502,-122.4545,18512
North Massapequa,NY,40.7031,-73.4678,18505
Gautier,MS,30.4106,-88.6568,18490
Mayfield Heights,OH,41.5175,-81.4534,18487
Breaux Bridge,LA,30.2829,-91.9043,18484
Hopkins,MN,44.9261,-93.4056,18468
Defiance,OH,41.281,-84.3661,18460
Iron Mountain,MI,45.8275,-88.0599,18432
Berea,KY,37.5904,-84.2898,18423
Altus,OK,34.6566,-99.3051,18418
Bryn Mawr-Skyway,WA,47.4949,-122.2411,18414
Uvalde,TX,29.2153,-99.7782,18406
Brushy Creek,TX,30.5125,-97.7388,18399
Brook Park,OH,41.4036,-81.8219,18382
North Amityville,NY,40.7005,-73.4118,18382
Wallingford Center,CT,41.4499,-72.8189,18360
Sunnyside,WA,46.3158,-120.0059,18352
World Golf Village,FL,29.9653,-81.4898,18327
Sycamore,IL,41.9951,-88.6812,18322
Franklin Farm,VA,38.9133,-77.3969,18321
Chowchilla,CA,37.1095,-120.2349,18310
Brookfield,IL,41.8245,-87.847,18310
Ronkonkoma,NY,40.804,-73.1258,18309
Rutherford,NJ,40.8203,-74.1057,18303
Merrifield,VA,38.8731,-77.2426,18291
Newburyport,MA,42.8124,-70.8878,18289
Idylwood,VA,38.8896,-77.2055,18273
Kilgore,TX,32.3979,-94.8603,18265
Radford,VA,37.1229,-80.5587,18249
Palestine,TX,31.7544,-95.6471,18243
Crawfordsville,IN,40.0428,-86.8975,18242
Springfield,TN,36.4943,-86.8709,18241
Boerne,TX,29.7844,-98.7289,18232
Hyattsville,MD,38.9612,-76.9548,18230
Lake Placid,FL,27.2977,-81.3715,18227
St. Michael,MN,45.2014,-93.692,18204
Maumelle,AR,34.8522,-92.4,18199
Niles,OH,41.1878,-80.753,18176
Iselin,NJ,40.5702,-74.317,18175
Menomonie,WI,44.8893,-91.9084,18159
Trenton,MI,42.1394,-83.1929,18157
Rutland,VT,43.6091,-72.9782,18131
Imperial,CA,32.839,-115.5719,18120
Orange,TX,30.121,-93.7616,18118
Otsego,MN,45.266,-93.62,18113
Madison,IN,38.7581,-85.3974,18109
St. Matthews,KY,38.2497,-85.6383,18105
Alton,TX,26.2884,-98.3098,18105
Cudahy,WI,42.9467,-87.8641,18104
Round Lake,IL,42.3435,-88.1058,18100
Oxon Hill,MD,38.7887,-76.9733,18080
Manchester,MO,38.583,-90.5065,18073
Beeville,TX,28.4059,-97.7494,18068
Cary,IL,42.2129,-88.2493,18067
North Wilkesboro,NC,36.1728,-81.139,18066
North Aurora,IL,41.8083,-88.3413,18057
Lithia Springs,GA,33.781,-84.6485,18054
Bon Air,VA,37.5187,-77.5713,18052
Bensenville,IL,41.9593,-87.9433,18044
Eastlake,OH,41.6581,-81.4323,18042
Beaver Dam,WI,43.469,-88.8308,18041
Safety Harbor,FL,28.008,-82.6964,18016
Mattoon,IL,39.4775,-88.3624,18016
Macomb,IL,40.4721,-90.6816,18006
North Druid Hills,GA,33.8186,-84.3254,18002
West Columbia,SC,33.9931,-81.0932,17998
Fayetteville,GA,33.45,-84.4709,17991
Sunland Park,NM,31.8194,-106.5943,17978
Estelle,LA,29.8447,-90.1021,17968
Mountain House,CA,37.774,-121.5452,17966
San Carlos Park,FL,26.4765,-81.8193,17961
Zachary,LA,30.6642,-91.1634,17949
Kingsland,GA,30.8194,-81.7217,17949
Marco Island,FL,25.933,-81.6993,17947
Huntington,IN,40.8815,-85.5053,17942
Ingleside,TX,27.87,-97.2077,17940
Humacao,PR,18.1519,-65.8204,17939
Wantagh,NY,40.6686,-73.5104,17915
Lenoir,NC,35.9096,-81.5247,17913
Concord,MO,38.5117,-90.3574,17912
Easton,MD,38.776,-76.0702,17911
Burke Centre,VA,38.7903,-77.2999,17894
Perry,GA,32.4719,-83.7282,17894
Hannibal,MO,39.7097,-91.3939,17884
Menasha,WI,44.2124,-88.4272,17873
Oak Grove,OR,45.4156,-122.6349,17872
Scarsdale,NY,40.9902,-73.7773,17871
Brenham,TX,30.1585,-96.3964,17863
Ocean Springs,MS,30.4082,-88.7861,17862
Dallas,OR,44.9222,-123.3131,17859
Woodcrest,CA,33.8789,-117.3686,17859
White Settlement,TX,32.7554,-97.4605,17851
Five Forks,SC,34.8069,-82.2271,17844
Knightdale,NC,35.7918,-78.4955,17843
Shenandoah,PA,40.8167,-76.2004,17840
Ada,OK,34.7683,-96.6689,17840
Crossville,TN,35.9527,-85.0294,17825
Beltsville,MD,39.0394,-76.9211,17812
Colonia,NJ,40.5929,-74.3151,17801
Moraga,CA,37.8439,-122.1225,17783
Midway,FL,30.4138,-87.0261,17760
Steubenville,OH,40.3653,-80.652,17753
Tavares,FL,28.7921,-81.7353,17749
Belgrade,MT,45.7796,-111.1751,17743
Takoma Park,MD,38.981,-77.0028,17725
Dover,NJ,40.8859,-74.5597,17725
Lackawanna,NY,42.8182,-78.8326,17720
Melville,NY,40.7823,-73.4088,17716
Wailuku,HI,20.8834,-156.5059,17708
Buckhall,VA,38.725,-77.4472,17708
El Dorado,AR,33.2184,-92.664,17706
Valle Vista,CA,33.7436,-116.8872,17663
